~Version Section
VERS.   2.0:  CWLS Log ASCII Standard - Version 2.0
WRAP.    NO:  One data record per depth sample.
~Well Information Section
#MNEM.UNIT      VALUE                    DESCRIPTION
#---------      ----------               -----------
STRT.M              15.083               :START DEPTH
STOP.M          2214.06274               :STOP DEPTH
STEP.M               .1524               :STEP
NULL.          -999.250000               :NULL VALUE
COMP.                                    :Oil Company
WELL.          GOPAVARAM#3               :Non unique well name
FLD.                S-KNGM               :Field name
LOC.  82.076189, 16.510314             :Location
PROV.                   AP               :Province
SRVC.                                    :Service
DATE.           2012-06-22               :Date unloaded
UWI.           S-KNGM-GM-3               :Unique well id
~Curve Information Section
#MNEM.UNIT                   API CODE                 Curve Description
#---------                   ----------               -----------------
BOREHOLE-DEPTH.M                                   :DEPTH
CALI.IN                                   :
DT.US/F                                   :
GR.GAPI                                   :
LLD.OHMM                                   :
LLS.OHMM                                   :
MSFL.OHMM                                   :
NPHI.V/V                                   :
RHOB.G/C3                                   :
SP.MV                                   :
~A
# ...
1621.3790    8.4887       121.5788     49.8850      1.5601       1.4112       2.0465       0.5249       2.3557       -165.8346    
1621.5314    8.5085       123.2096     54.0449      1.3907       1.2484       2.1056       0.5257       2.3936       -165.1655    
1621.6838    8.5014       121.2728     54.8406      1.3148       1.1821       1.9133       0.5462       2.4687       -163.5370    
1621.8362    8.5930       115.0879     52.6571      1.4205       1.2687       2.1121       0.5404       2.5952       -161.6730    
1621.9886    8.5083       108.3203     50.7413      1.6687       1.4746       3.9400       0.5158       2.7423       -161.9154    
1622.1410    8.4040       103.7988     59.7953      1.9325       1.6908       4.5851       0.4809       2.7290       -164.1137    
1622.2934    8.3871       102.2754     64.1399      2.1631       1.8812       4.2479       0.4612       2.5746       -166.8967    
1622.4458    8.3832       104.9610     65.5029      1.8689       1.6499       2.5109       0.4393       2.4122       -169.4152    
1622.5983    8.3231       104.7819     53.1123      1.6035       1.4240       2.3935       0.4138       2.2662       -171.6211    
1622.7506    8.2810       104.8633     41.4945      1.4826       1.3076       2.2269       0.3540       2.1758       -174.2791    
1622.9031    8.2819       103.0436     30.1656      1.4133       1.2373       2.0383       0.2972       2.1316       -177.2607    
1623.0554    8.2728       103.4766     26.7071      1.3766       1.1848       1.9350       0.2659       2.1232       -179.9078    
1623.2079    8.2789       104.3490     26.3133      1.3217       1.1186       1.9319       0.2691       2.1218       -181.8858    
1623.3602    8.3056       104.5605     27.7169      1.2084       1.0101       1.8912       0.2742       2.1093       -183.2940    
1623.5126    8.3162       104.9121     26.4533      1.0744       0.8857       1.7624       0.2715       2.1016       -184.3161    
1623.6650    8.3406       105.6543     24.8943      0.9476       0.7794       1.6214       0.2621       2.1059       -185.0808    
1623.8174    8.3715       105.5436     22.9916      0.9022       0.7378       1.5989       0.2665       2.1316       -185.7720    
1623.9698    8.3745       104.9805     22.8595      0.9628       0.7707       1.5790       0.2735       2.1414       -186.1654    
1624.1222    8.3705       105.1562     23.1980      0.9999       0.7966       1.6281       0.2684       2.1479       -185.8934    
1624.2747    8.3749       105.5990     25.1207      1.0796       0.8581       1.9092       0.2475       2.1483       -184.6399    
1624.4270    8.3717       105.8561     26.8697      1.1421       0.9082       1.6796       0.2487       2.1740       -183.8567    
1624.5795    8.3807       106.2956     27.8396      1.1672       0.9296       1.8216       0.2526       2.2005       -181.9892    
1624.7318    8.3767       105.8984     32.3619      1.2604       0.9952       1.8261       0.2644       2.2420       -179.1106    
1624.8843    8.3871       106.5755     38.4458      1.3055       1.0305       2.0506       0.2762       2.2743       -176.6437    
1625.0366    8.3837       107.0117     40.3636      1.3184       1.0460       2.2564       0.3037       2.2623       -174.2062    
1625.1891    8.3137       107.8288     38.6918      1.3013       1.0403       1.8936       0.3158       2.2337       -173.2979    
1625.3414    8.3115       110.3744     36.4801      1.2400       0.9995       1.8884       0.3131       2.2094       -173.7793    
1625.4938    8.3140       111.0742     38.2600      1.1906       0.9685       1.8567       0.3188       2.2067       -173.7537    
1625.6462    8.3135       111.5039     37.7060      1.1918       0.9739       1.8574       0.3260       2.1944       -173.3971    
1625.7986    8.3079       110.4395     37.8338      1.2091       0.9942       1.6467       0.3293       2.1948       -174.1984    
1625.9510    8.3113       109.2936     36.1724      1.2481       1.0239       1.8901       0.3263       2.2041       -173.9559    
1626.1034    8.3111       108.7956     33.4922      1.2565       1.0351       2.0940       0.3369       2.2095       -174.4668    
1626.2559    8.3143       109.5410     31.8427      1.2388       1.0246       1.9549       0.3344       2.1937       -176.0292    
1626.4082    8.3144       108.3626     30.7462      1.1994       0.9991       1.7127       0.3280       2.1780       -177.8895    
1626.5607    8.3054       106.2663     32.4203      1.1869       0.9919       1.8259       0.2993       2.1680       -177.4118    
1626.7130    8.3041       106.0938     32.0009      1.2154       1.0038       2.1255       0.2880       2.1870       -175.2576    
1626.8655    8.3069       104.5117     33.1008      1.2312       1.0163       2.0286       0.2983       2.2122       -173.5370    
1627.0178    8.3162       104.0820     30.4659      1.2402       1.0259       1.6007       0.3250       2.2077       -173.7904    
1627.1703    8.3114       104.1081     27.1651      1.1856       0.9815       1.6236       0.3160       2.1911       -176.1063    
1627.3226    8.3164       104.4043     22.8564      1.0357       0.8741       1.8108       0.2849       2.1622       -177.0734    
1627.4750    8.3092       105.1465     24.2010      1.0008       0.8484       1.5871       0.2510       2.1628       -176.1251    
1627.6274    8.3113       106.7383     27.4092      1.0189       0.8661       1.5110       0.2572       2.1761       -174.2980    
1627.7798    8.3607       107.6823     32.7969      1.0699       0.9102       1.8694       0.2848       2.2339       -171.1290    
1627.9322    8.3731       92.9460      36.9968      1.2604       1.0552       2.0071       0.3241       2.2808       -167.2909    
1628.0846    8.3816       106.5592     37.0445      1.4429       1.1995       2.0898       0.3482       2.2763       -166.7684    
1628.2371    8.3282       103.3691     33.0265      1.3844       1.1698       2.2209       0.3298       2.2349       -168.5145    
1628.3894    8.2882       102.7702     31.2840      1.2947       1.1114       2.0263       0.2912       2.2144       -171.8011    
1628.5419    8.2856       103.4668     30.8178      1.2363       1.0717       1.8753       0.2797       2.2311       -173.2940    
1628.6942    8.2813       105.1270     36.8160      1.2009       1.0350       1.9901       0.2945       2.2560       -171.6105    
1628.8467    8.2916       108.5059     35.4025      1.1656       1.0006       2.1070       0.3453       2.2518       -170.0884    
1628.9990    8.3083       109.6875     35.9189      1.1253       0.9739       1.8721       0.3584       2.2151       -170.7058    
1629.1514    8.3167       110.9375     31.4593      1.1065       0.9594       1.5408       0.3441       2.1904       -172.0440    
1629.3038    8.3085       113.6165     34.4402      1.0640       0.9233       1.6033       0.3252       2.1940       -171.7133    
1629.4562    8.3296       114.5443     35.7166      1.0949       0.9474       2.0028       0.3170       2.2061       -168.9819    
1629.6086    8.3740       113.1771     38.5047      1.1824       1.0152       1.7683       0.3347       2.2011       -167.1068    
1629.7610    8.3708       114.3066     37.5173      1.1735       1.0171       1.9178       0.3244       2.2108       -165.5884    
1629.9134    8.3847       115.8008     39.5461      1.1573       1.0124       1.9079       0.3287       2.2294       -163.2650    
1630.0658    8.3841       115.1953     41.5929      1.1985       1.0545       1.4964       0.3579       2.2408       -161.4193    
1630.2183    8.3914       116.5820     41.5132      1.1701       1.0464       1.4756       0.3719       2.2346       -161.0772    
1630.3706    8.3858       117.2038     41.9178      1.1608       1.0577       2.0116       0.3581       2.2435       -162.2976    
1630.5231    8.3952       115.6641     40.7185      1.2270       1.1279       1.7940       0.3551       2.2643       -162.3750    
1630.6754    8.3876       118.1120     40.5494      1.2674       1.1773       1.6005       0.3650       2.2735       -161.5516    
