~Version Section
VERS.   2.0:  CWLS Log ASCII Standard - Version 2.0
WRAP.    NO:  One data record per depth sample.
~Well Information Section
#MNEM.UNIT      VALUE                    DESCRIPTION
#---------      ----------               -----------
STRT.M              15.083               :START DEPTH
STOP.M          2214.06274               :STOP DEPTH
STEP.M               .1524               :STEP
NULL.          -999.250000               :NULL VALUE
COMP.                                    :Oil Company
WELL.          GOPAVARAM#3               :Non unique well name
FLD.                S-KNGM               :Field name
LOC.  82.076189, 16.510314             :Location
PROV.                   AP               :Province
SRVC.                                    :Service
DATE.           2012-06-22               :Date unloaded
UWI.           S-KNGM-GM-3               :Unique well id
~Curve Information Section
#MNEM.UNIT                   API CODE                 Curve Description
#---------                   ----------               -----------------
BOREHOLE-DEPTH.M                                   :DEPTH
CALI.IN                                   :
DT.US/F                                   :
GR.GAPI                                   :
LLD.OHMM                                   :
LLS.OHMM                                   :
MSFL.OHMM                                   :
NPHI.V/V                                   :
RHOB.G/C3                                   :
SP.MV                                   :
~A
# ...
1914.2919    8.0613       83.8086      21.8964      1.3986       1.4080       2.6324       0.1785       2.2412       -178.4963    
1914.4442    8.0601       85.0716      20.7193      1.3177       1.2933       2.1399       0.1922       2.2303       -178.3824    
1914.5967    8.0620       85.6283      21.0568      1.3626       1.3049       2.2108       0.1972       2.2149       -178.3162    
1914.7490    8.0610       86.8164      19.5246      1.4798       1.3851       2.3098       0.1944       2.2176       -178.3125    
1914.9015    8.0609       86.3932      20.8088      1.6077       1.4791       2.3930       0.1854       2.2271       -178.2537    
1915.0538    8.0588       86.0645      21.2792      1.6576       1.5155       2.4362       0.1825       2.2340       -178.4264    
1915.2062    8.0622       87.4740      23.5170      1.6305       1.4867       2.6315       0.1872       2.2381       -178.4963    
1915.3586    8.0597       87.7734      23.0435      1.5889       1.4590       2.6572       0.1933       2.2350       -178.6764    
1915.5110    8.0625       88.3789      22.8083      1.5622       1.4510       2.5962       0.1986       2.2328       -178.7463    
1915.6634    8.0623       89.4141      21.8675      1.6214       1.5133       2.4700       0.2003       2.2403       -178.8088    
1915.8158    8.0648       89.1699      25.2746      1.6813       1.5575       2.6256       0.1957       2.2643       -178.8125    
1915.9683    8.0729       89.3848      27.7534      1.7007       1.5683       2.8731       0.1888       2.2825       -178.6361    
1916.1206    8.0759       89.7266      26.1069      1.6617       1.5325       2.8109       0.1952       2.2791       -178.5662    
1916.2731    8.0744       89.8731      24.0740      1.5357       1.4300       2.4789       0.2075       2.2639       -178.5037    
1916.4254    8.0731       90.5404      24.0694      1.4959       1.3953       2.2417       0.2094       2.2456       -178.5000    
1916.5779    8.0674       90.2767      24.5606      1.5096       1.4043       2.2232       0.2043       2.2459       -178.2647    
1916.7302    8.0658       91.1621      24.6285      1.5209       1.4179       2.7289       0.1995       2.2423       -177.9559    
1916.8827    8.0835       91.8425      21.4697      1.6357       1.5284       2.9179       0.2052       2.2331       -177.6434    
1917.0350    8.0958       90.7845      24.6543      1.7171       1.6106       2.6880       0.1998       2.2348       -177.2721    
1917.1874    8.0978       91.5332      29.1488      1.7282       1.6264       2.8544       0.1975       2.2523       -176.6030    
1917.3398    8.1134       91.3477      32.5617      1.7438       1.6536       3.0845       0.1946       2.2698       -175.7391    
1917.4922    8.1218       92.1387      32.4487      1.7180       1.6644       3.0083       0.1987       2.2652       -174.5112    
1917.6446    8.1397       93.6784      32.5129      1.7928       1.7621       2.7115       0.1941       2.2503       -172.0849    
1917.7970    8.1938       93.6230      41.1100      1.9719       1.9367       2.8394       0.1870       2.2912       -169.0556    
1917.9495    8.2941       94.9349      53.5743      2.2292       2.1900       3.9101       0.2035       2.3423       -165.2873    
1918.1018    8.4336       94.4434      66.5646      2.6194       2.5854       4.4042       0.2530       2.4138       -160.6514    
1918.2543    8.4705       95.3027      76.4351      2.7449       2.7588       4.0827       0.3103       2.4398       -157.4931    
1918.4066    8.5114       96.5300      79.0385      2.6450       2.7021       4.4525       0.3339       2.4527       -155.4892    
1918.5591    8.5558       96.5918      78.2259      2.6346       2.7189       4.3963       0.3419       2.4470       -153.7282    
1918.7114    8.5536       97.4870      75.5432      2.5880       2.7043       4.4392       0.3342       2.4544       -152.6840    
1918.8639    8.5561       97.7344      76.0397      2.5986       2.7358       4.4603       0.3409       2.4468       -152.2721    
1919.0162    8.5545       98.2227      78.2930      2.6266       2.7814       4.4748       0.3309       2.4416       -152.0147    
1919.1686    8.5580       98.8672      80.7675      2.5859       2.7558       4.6493       0.3438       2.4428       -151.7647    
1919.3210    8.5530       98.7565      80.1531      2.5534       2.7161       4.5844       0.3492       2.4451       -151.5147    
1919.4734    8.5569       98.7467      80.0630      2.5298       2.6845       4.4592       0.3601       2.4548       -151.7941    
1919.6258    8.5546       98.8900      80.6800      2.5159       2.6395       4.3419       0.3616       2.4564       -152.7535    
1919.7782    8.5498       98.7109      81.3870      2.5924       2.6742       4.4544       0.3548       2.4573       -154.4005    
1919.9307    8.5119       97.9753      76.2550      2.4224       2.4808       4.2079       0.3789       2.4294       -157.0290    
1920.0830    8.4787       99.0234      61.3869      1.9420       2.0031       4.0458       0.3699       2.3504       -160.6576    
1920.2355    8.2067       99.6485      45.3664      1.5785       1.6363       3.4812       0.3403       2.2525       -165.8154    
1920.3878    8.0283       100.2865     36.3104      1.2870       1.3403       1.9800       0.2784       2.1840       -170.0068    
1920.5403    8.0726       101.5625     35.9632      1.1108       1.1556       1.8943       0.2473       2.1566       -172.3085    
1920.6926    8.1393       100.7324     41.6447      1.1904       1.2217       1.9013       0.2415       2.1881       -173.1433    
1920.8450    8.2222       99.6875      52.6320      1.4171       1.4203       2.2294       0.2452       2.2632       -171.8936    
1920.9974    8.2825       97.5391      63.9310      1.7913       1.7461       3.2125       0.2894       2.3742       -168.9306    
1921.1498    8.3133       95.4980      68.2605      2.2427       2.1078       4.1700       0.3259       2.4305       -167.0444    
1921.3022    8.2676       94.9577      62.4782      2.4171       2.2306       4.2489       0.3381       2.4024       -167.4668    
1921.4546    8.1282       94.5345      54.8356      2.4678       2.2445       3.7802       0.3008       2.3540       -169.0292    
1921.6070    8.1059       95.1855      54.4833      2.3848       2.1089       3.4124       0.2939       2.3429       -170.6542    
1921.7594    8.1070       96.8229      50.3324      2.0016       1.7459       3.9234       0.2997       2.3194       -172.3380    
1921.9119    8.0457       98.1641      48.0914      1.7005       1.4649       3.8470       0.3027       2.2604       -174.2608    
1922.0642    8.0045       98.8509      43.7452      1.4397       1.2374       2.2289       0.2709       2.1914       -175.7277    
1922.2167    8.0035       98.3919      41.9597      1.1944       1.0187       1.9399       0.2438       2.1648       -176.6947    
1922.3690    8.0050       98.0273      39.4650      1.1186       0.9325       2.0303       0.2309       2.1554       -177.2793    
1922.5215    8.0021       97.9427      35.0904      1.1379       0.9320       1.9158       0.2385       2.1453       -177.6066    
1922.6738    8.0093       97.9688      32.0447      1.1582       0.9372       1.8074       0.2458       2.1319       -177.9191    
1922.8262    8.0094       97.9557      32.7972      1.2098       0.9649       1.8239       0.2483       2.1337       -178.1728    
1922.9786    8.0516       97.3145      33.5098      1.3006       1.0197       1.8586       0.2491       2.1391       -178.1287    
1923.1310    8.0625       96.4583      35.3765      1.3581       1.0560       1.9484       0.2478       2.1389       -178.1250    
1923.2834    8.0633       96.4648      32.7079      1.3446       1.0414       1.9874       0.2425       2.1471       -177.9486    
1923.4358    8.0627       96.1654      34.4763      1.3440       1.0364       2.0023       0.2339       2.1623       -177.7611    
1923.5882    8.0630       96.0742      35.6701      1.3226       1.0162       2.0060       0.2333       2.1797       -177.6912    
