~Version Section
VERS.   2.0:  CWLS Log ASCII Standard - Version 2.0
WRAP.    NO:  One data record per depth sample.
~Well Information Section
#MNEM.UNIT      VALUE                    DESCRIPTION
#---------      ----------               -----------
STRT.M              15.083               :START DEPTH
STOP.M          2214.06274               :STOP DEPTH
STEP.M               .1524               :STEP
NULL.          -999.250000               :NULL VALUE
COMP.                                    :Oil Company
WELL.          GOPAVARAM#3               :Non unique well name
FLD.                S-KNGM               :Field name
LOC.  82.076189, 16.510314             :Location
PROV.                   AP               :Province
SRVC.                                    :Service
DATE.           2012-06-22               :Date unloaded
UWI.           S-KNGM-GM-3               :Unique well id
~Curve Information Section
#MNEM.UNIT                   API CODE                 Curve Description
#---------                   ----------               -----------------
BOREHOLE-DEPTH.M                                   :DEPTH
CALI.IN                                   :
DT.US/F                                   :
GR.GAPI                                   :
LLD.OHMM                                   :
LLS.OHMM                                   :
MSFL.OHMM                                   :
NPHI.V/V                                   :
RHOB.G/C3                                   :
SP.MV                                   :
~A
# ...
24.5318      22.7031      187.7208     33.0253      0.2500       0.2083       0.4074       -999.2500    -999.2500    10.3997      
24.6842      22.6999      187.7557     33.5821      0.2500       0.2125       0.4159       -999.2500    -999.2500    8.9291       
24.8366      22.6942      187.8785     33.9226      0.2500       0.2182       0.4195       -999.2500    -999.2500    6.6638       
24.9890      22.6913      188.3359     34.3852      0.2500       0.2186       0.4195       -999.2500    -999.2500    5.0504       
25.1414      22.6885      188.7761     35.3620      0.2500       0.2116       0.4175       -999.2500    -999.2500    2.7598       
25.2938      22.6871      188.4914     35.3214      0.2500       0.2048       0.4193       -999.2500    -999.2500    1.4169       
25.4462      22.6872      187.3466     33.6624      0.2500       0.1912       0.4253       -999.2500    -999.2500    0.0054       
25.5986      22.6877      186.7146     32.6824      0.2500       0.1893       0.4339       -999.2500    -999.2500    -0.5373      
25.7510      22.6922      184.5174     31.3074      0.2500       0.1848       0.4486       -999.2500    -999.2500    -0.4977      
25.9034      22.6956      181.7120     30.2595      0.2500       0.1784       0.4669       -999.2500    -999.2500    -0.2190      
26.0558      22.7011      175.3164     28.9605      0.2500       0.1722       0.4871       -999.2500    -999.2500    0.5740       
26.2082      22.7033      172.5027     28.3795      0.2500       0.1720       0.4979       -999.2500    -999.2500    1.3359       
26.3606      22.7047      170.8246     27.8346      0.2500       0.1655       0.4945       -999.2500    -999.2500    2.8206       
26.5130      22.7053      170.5092     27.9716      0.2500       0.1657       0.4867       -999.2500    -999.2500    3.8065       
26.6654      22.7057      171.6190     29.5020      0.2500       0.1680       0.4826       -999.2500    -999.2500    5.0810       
26.8178      22.7044      174.2472     30.4327      0.2500       0.1716       0.4887       -999.2500    -999.2500    5.4683       
26.9702      22.6989      183.4173     30.7610      0.2500       0.1823       0.5015       -999.2500    -999.2500    6.0270       
27.1226      22.6956      187.2322     30.6095      0.2500       0.1855       0.5109       -999.2500    -999.2500    6.3521       
27.2750      22.6922      189.2729     30.6975      0.2500       0.1987       0.5184       -999.2500    -999.2500    6.7367       
27.4274      22.6907      188.9909     30.7968      0.2500       0.2007       0.5265       -999.2500    -999.2500    6.7147       
27.5798      22.6887      188.1360     31.0843      0.2500       0.2013       0.5402       -999.2500    -999.2500    6.5481       
27.7322      22.6878      187.8935     31.2642      0.2500       0.2016       0.5573       -999.2500    -999.2500    6.2117       
27.8846      22.6875      188.9803     31.3172      0.2500       0.1963       0.5791       -999.2500    -999.2500    5.6688       
28.0370      22.6898      190.1381     31.0232      0.2500       0.1878       0.5968       -999.2500    -999.2500    5.2412       
28.1894      22.6957      191.4652     29.8297      0.2500       0.1810       0.6163       -999.2500    -999.2500    4.7646       
28.3418      22.6993      191.2800     29.1651      0.2500       0.1753       0.6308       -999.2500    -999.2500    4.3093       
28.4942      22.7034      190.2326     29.0053      0.2500       0.1709       0.6437       -999.2500    -999.2500    3.4237       
28.6466      22.7043      189.6257     29.3023      0.2500       0.1779       0.6447       -999.2500    -999.2500    2.6122       
28.7990      22.7058      188.9193     29.5677      0.2119       0.2026       0.6441       -999.2500    -999.2500    1.7921       
28.9514      22.7063      188.5927     29.8912      0.1011       0.2267       0.6513       -999.2500    -999.2500    1.7770       
29.1038      22.7048      188.1595     30.8474      0.1858       0.2618       0.6655       -999.2500    -999.2500    2.3903       
29.2562      22.7015      188.0519     31.4525      0.2060       0.2763       0.6826       -999.2500    -999.2500    3.3540       
29.4086      22.6961      188.0741     32.0432      0.2098       0.2889       0.7142       -999.2500    -999.2500    4.8931       
29.5610      22.6931      188.4709     32.7591      0.2068       0.2901       0.7252       -999.2500    -999.2500    5.7832       
29.7134      22.6905      189.5829     34.2040      0.2035       0.2907       0.7277       -999.2500    -999.2500    6.5976       
29.8658      22.6889      190.8200     34.2239      0.2061       0.2919       0.7286       -999.2500    -999.2500    6.7457       
30.0182      22.6865      192.0284     33.4824      0.2136       0.3005       0.7578       -999.2500    -999.2500    6.9188       
30.1706      22.4405      191.8221     33.8140      0.2179       0.3051       0.8765       -999.2500    -999.2500    6.7631       
30.3230      21.7911      191.0051     34.7660      0.2142       0.3019       1.0864       -999.2500    -999.2500    6.1729       
30.4754      20.8911      190.0473     36.3541      0.1983       0.2820       1.0033       -999.2500    -999.2500    4.9587       
30.6278      19.7111      188.7891     39.6580      0.1824       0.2566       0.7846       -999.2500    -999.2500    3.1602       
30.7802      18.7550      188.0176     43.2337      0.2016       0.2672       0.7418       -999.2500    -999.2500    0.7952       
30.9326      18.0395      187.1554     46.7655      0.2532       0.3168       0.8533       -999.2500    -999.2500    -2.2672      
31.0850      17.9506      186.0687     48.4139      0.3530       0.4190       0.9428       -999.2500    -999.2500    -5.5842      
31.2374      17.9583      184.6718     50.1073      0.4730       0.5349       0.9868       -999.2500    -999.2500    -8.9535      
31.3898      17.9707      183.6029     50.6796      0.5688       0.6141       0.9964       -999.2500    -999.2500    -11.2615     
31.5422      18.0237      182.4543     50.5787      0.6360       0.6690       1.0125       -999.2500    -999.2500    -13.0443     
31.6946      18.1471      181.6923     50.7778      0.6524       0.6903       0.9631       -999.2500    -999.2500    -14.4397     
31.8470      18.2254      181.4968     51.0679      0.6594       0.7098       0.8858       -999.2500    -999.2500    -15.6462     
31.9994      18.1780      182.4140     50.6792      0.6748       0.7404       0.8318       -999.2500    -999.2500    -16.5866     
32.1518      18.1266      183.4234     50.5046      0.6946       0.7686       0.8091       -999.2500    -999.2500    -17.2677     
32.3042      18.1357      183.8475     51.2727      0.7238       0.7989       0.8815       -999.2500    -999.2500    -17.6261     
32.4566      18.1554      184.0000     52.0177      0.7466       0.8261       0.9881       -999.2500    -999.2500    -17.8811     
32.6090      18.1359      184.0000     52.6310      0.7605       0.8359       1.0099       -999.2500    -999.2500    -18.1080     
32.7614      18.0927      184.0000     53.1704      0.7649       0.8345       0.9467       -999.2500    -999.2500    -18.2674     
32.9138      18.0552      184.0000     52.8794      0.7566       0.8197       0.8282       -999.2500    -999.2500    -18.7603     
33.0662      18.0380      183.9444     52.0067      0.7520       0.8085       0.7474       -999.2500    -999.2500    -19.2390     
33.2186      18.0336      183.2422     50.2999      0.7503       0.8081       0.7792       -999.2500    -999.2500    -19.7957     
33.3710      18.0586      181.7113     48.9094      0.7503       0.8127       0.8201       -999.2500    -999.2500    -20.2139     
33.5234      18.1770      177.0770     47.6788      0.7512       0.8229       0.8572       -999.2500    -999.2500    -20.6780     
33.6758      18.2668      172.7182     47.0620      0.7553       0.8289       0.8835       -999.2500    -999.2500    -20.9499     
33.8282      18.2463      169.3038     47.6023      0.7776       0.8422       0.8736       -999.2500    -999.2500    -21.1197     
