~Version Section
VERS.   2.0:  CWLS Log ASCII Standard - Version 2.0
WRAP.    NO:  One data record per depth sample.
~Well Information Section
#MNEM.UNIT      VALUE                    DESCRIPTION
#---------      ----------               -----------
STRT.M              15.083               :START DEPTH
STOP.M          2214.06274               :STOP DEPTH
STEP.M               .1524               :STEP
NULL.          -999.250000               :NULL VALUE
COMP.                                    :Oil Company
WELL.          GOPAVARAM#3               :Non unique well name
FLD.                S-KNGM               :Field name
LOC.  82.076189, 16.510314             :Location
PROV.                   AP               :Province
SRVC.                                    :Service
DATE.           2012-06-22               :Date unloaded
UWI.           S-KNGM-GM-3               :Unique well id
~Curve Information Section
#MNEM.UNIT                   API CODE                 Curve Description
#---------                   ----------               -----------------
BOREHOLE-DEPTH.M                                   :DEPTH
CALI.IN                                   :
DT.US/F                                   :
GR.GAPI                                   :
LLD.OHMM                                   :
LLS.OHMM                                   :
MSFL.OHMM                                   :
NPHI.V/V                                   :
RHOB.G/C3                                   :
SP.MV                                   :
~A
# ...
1186.7342    12.7155      84.1048      40.9223      6.1166       4.9486       10.0396      0.2097       2.5124       69.9943      
1186.8866    12.6404      96.2893      49.0014      3.8022       3.3352       6.7338       0.2291       2.4732       72.7573      
1187.0391    12.5282      107.7307     57.2326      2.3822       2.1228       3.0229       0.2676       2.4180       74.9594      
1187.1914    12.4842      114.8831     64.3234      1.7847       1.5584       1.8943       0.3147       2.3781       76.6110      
1187.3439    12.4466      116.7310     67.7640      1.5826       1.3835       1.6036       0.3655       2.3413       77.2337      
1187.4962    12.4891      111.7467     64.7726      1.7222       1.4801       1.8455       0.3688       2.3299       76.3060      
1187.6487    12.5191      106.8085     60.0357      1.9402       1.6160       2.2135       0.3450       2.3248       75.0925      
1187.8010    12.4507      103.3819     53.0000      2.3190       1.8252       2.4690       0.3230       2.3251       73.0208      
1187.9534    12.4287      103.0465     48.6425      2.5180       1.9542       2.6276       0.3026       2.3238       71.4800      
1188.1058    12.4409      107.2300     46.5597      2.5802       2.0052       2.6890       0.2942       2.3144       69.4877      
1188.2582    12.4543      110.9728     45.6094      2.4896       1.9770       2.7981       0.2912       2.3000       67.9932      
1188.4106    12.5032      114.2043     44.4121      2.1362       1.8144       2.7797       0.2937       2.2779       65.7908      
1188.5630    12.5178      115.4483     43.5017      1.8588       1.6765       2.5691       0.2966       2.2496       64.2458      
1188.7154    12.4208      115.3107     42.1270      1.5316       1.4805       2.2489       0.2897       2.2167       62.2443      
1188.8678    12.3344      114.8404     40.9837      1.3891       1.3687       2.0014       0.2777       2.1828       61.0696      
1189.0203    12.4308      114.4427     39.6323      1.3364       1.2792       1.8738       0.2764       2.1548       59.7714      
1189.1726    12.5099      114.5770     39.0945      1.3375       1.2486       1.8257       0.2859       2.1342       59.0639      
1189.3251    12.4181      114.7858     38.1257      1.3872       1.2484       1.8858       0.2892       2.1273       58.3370      
1189.4774    12.3384      114.5497     37.4293      1.4075       1.2582       1.9454       0.2852       2.1267       57.9990      
1189.6299    12.3457      112.7892     36.3571      1.4423       1.2758       1.9443       0.2797       2.1295       57.7222      
1189.7822    12.3594      110.7951     35.4220      1.4600       1.2879       1.9073       0.2794       2.1314       57.6194      
1189.9346    12.3540      105.2272     34.4722      1.5028       1.3117       1.8601       0.2844       2.1331       57.2794      
1190.0870    12.3419      101.9762     34.9138      1.5378       1.3377       1.8850       0.2898       2.1379       57.0129      
1190.2394    12.2556      99.5481      36.5072      1.6226       1.3924       2.0519       0.2882       2.1553       56.5209      
1190.3918    12.1899      100.3840     36.8889      1.6559       1.4151       2.2016       0.2861       2.1725       56.2843      
1190.5442    12.1641      105.2863     37.2419      1.6232       1.4008       2.1990       0.2864       2.1876       56.0451      
1190.6966    12.2017      108.1364     37.7363      1.5629       1.3708       2.0618       0.2988       2.1921       55.9314      
1190.8490    12.3532      110.9369     39.0247      1.4665       1.3046       1.8729       0.3185       2.1793       55.9626      
1191.0015    12.5186      110.9790     39.7774      1.4545       1.2806       1.8083       0.3365       2.1653       56.0283      
1191.1538    12.6200      110.4058     40.6577      1.4623       1.2572       1.8319       0.3347       2.1486       56.2063      
1191.3063    12.6424      110.4450     39.8472      1.4852       1.2561       1.8819       0.3333       2.1390       56.3055      
1191.4586    12.6314      111.2470     36.9398      1.4891       1.2536       1.8627       0.3192       2.1356       56.3995      
1191.6110    12.5677      111.8525     36.4603      1.4885       1.2589       1.7980       0.3057       2.1374       56.3585      
1191.7634    12.0394      113.1131     37.5649      1.4828       1.2691       1.7483       0.2957       2.1461       56.2485      
1191.9158    11.8867      114.0736     38.6514      1.4946       1.2760       1.7435       0.2965       2.1530       56.2045      
1192.0682    12.0546      116.3411     41.0589      1.4960       1.2752       1.6765       0.3199       2.1567       56.3178      
1192.2206    12.2043      117.8126     42.8135      1.4841       1.2633       1.5874       0.3381       2.1532       56.4920      
1192.3730    12.3177      119.5394     45.5769      1.4516       1.2430       1.4772       0.3599       2.1361       57.0067      
1192.5254    12.4513      119.7576     46.3851      1.4215       1.2392       1.4292       0.3644       2.1244       57.5995      
1192.6778    12.7774      119.7539     46.5361      1.3967       1.2471       1.4583       0.3819       2.1154       58.4327      
1192.8302    12.8863      120.1719     46.2702      1.3991       1.2633       1.5420       0.3781       2.1160       58.8156      
1192.9827    12.6824      121.2238     45.3173      1.4401       1.2888       1.6650       0.3790       2.1276       59.0229      
1193.1350    12.5405      122.1517     44.1991      1.4560       1.3000       1.6722       0.3668       2.1352       58.9868      
1193.2875    12.5174      123.1608     43.1387      1.4576       1.3013       1.6745       0.3454       2.1419       58.8380      
1193.4398    12.4910      122.0498     43.5658      1.4731       1.3021       1.6572       0.3449       2.1426       58.6964      
1193.5922    12.3633      118.3451     44.2759      1.5045       1.3051       1.6178       0.3583       2.1350       58.4926      
1193.7446    12.3140      115.4207     44.0956      1.5378       1.3148       1.6450       0.3845       2.1282       58.6680      
1193.8970    12.3854      113.8797     44.0198      1.5490       1.3259       1.6519       0.3685       2.1147       59.2464      
1194.0494    12.3913      116.7469     44.4897      1.4859       1.3221       1.5979       0.3632       2.1087       59.8771      
1194.2018    12.3426      121.4962     45.1956      1.4121       1.3157       1.5188       0.3597       2.1071       60.6363      
1194.3542    12.3330      123.6328     45.9578      1.3886       1.3228       1.5240       0.3641       2.1137       61.3284      
1194.5066    12.3142      124.7273     46.4467      1.3957       1.3360       1.5722       0.3786       2.1325       62.2621      
1194.6590    12.2798      125.2617     46.4848      1.4491       1.3598       1.6245       0.3855       2.1441       63.5910      
1194.8114    12.3621      126.0254     47.0992      1.5415       1.3886       1.6744       0.3983       2.1583       65.0812      
1194.9639    12.5103      125.4981     48.1712      1.6585       1.4241       1.7457       0.3969       2.1599       66.6728      
1195.1162    12.6086      124.1486     49.8450      1.7507       1.4615       1.7931       0.4127       2.1629       68.2889      
1195.2687    12.5888      123.7014     53.5171      1.7561       1.4802       1.8396       0.4306       2.1715       69.7304      
1195.4210    12.4871      124.5460     57.9680      1.7472       1.4852       1.8422       0.4358       2.1964       71.1180      
1195.5734    12.4655      126.8667     62.1507      1.7419       1.4682       1.6775       0.4439       2.2097       72.6263      
1195.7258    12.4480      128.7565     66.2947      1.7592       1.4494       1.5097       0.4484       2.2231       74.1350      
1195.8782    12.4328      127.7536     68.8043      1.8065       1.4552       1.5690       0.4510       2.2335       75.4607      
1196.0306    12.4084      125.5569     69.8278      1.8649       1.4732       1.6871       0.4301       2.2488       76.3274      
