~Version Section
VERS.   2.0:  CWLS Log ASCII Standard - Version 2.0
WRAP.    NO:  One data record per depth sample.
~Well Information Section
#MNEM.UNIT      VALUE                    DESCRIPTION
#---------      ----------               -----------
STRT.M              15.083               :START DEPTH
STOP.M          2214.06274               :STOP DEPTH
STEP.M               .1524               :STEP
NULL.          -999.250000               :NULL VALUE
COMP.                                    :Oil Company
WELL.          GOPAVARAM#3               :Non unique well name
FLD.                S-KNGM               :Field name
LOC.  82.076189, 16.510314             :Location
PROV.                   AP               :Province
SRVC.                                    :Service
DATE.           2012-06-22               :Date unloaded
UWI.           S-KNGM-GM-3               :Unique well id
~Curve Information Section
#MNEM.UNIT                   API CODE                 Curve Description
#---------                   ----------               -----------------
BOREHOLE-DEPTH.M                                   :DEPTH
CALI.IN                                   :
DT.US/F                                   :
GR.GAPI                                   :
LLD.OHMM                                   :
LLS.OHMM                                   :
MSFL.OHMM                                   :
NPHI.V/V                                   :
RHOB.G/C3                                   :
SP.MV                                   :
~A
# ...
610.3574     13.8981      150.6543     75.1170      1.2385       1.1718       0.9698       0.4900       2.1021       97.7902      
610.5098     13.8849      150.1389     75.7890      1.2189       1.1630       0.9604       0.5066       2.1026       97.9385      
610.6622     13.8418      148.6620     76.2046      1.2290       1.1750       1.0136       0.4905       2.1055       98.0503      
610.8146     13.8133      147.8816     75.5819      1.2537       1.1895       1.0434       0.4802       2.1071       97.8257      
610.9670     13.7986      148.0273     71.7782      1.2952       1.2085       1.0692       0.4780       2.1058       97.0828      
611.1194     13.8036      148.6883     69.6263      1.3031       1.2086       1.0301       0.4765       2.1032       96.4277      
611.2718     13.8429      149.5733     67.3094      1.2968       1.2060       0.9572       0.4700       2.1014       95.4268      
611.4242     13.8510      150.3475     66.1820      1.2969       1.2051       0.9619       0.4570       2.1031       94.7270      
611.5766     13.8796      152.2206     65.5968      1.3100       1.2058       1.0625       0.4313       2.1145       93.8719      
611.7290     13.8803      151.9308     66.7625      1.3228       1.2060       1.1624       0.4274       2.1245       93.4565      
611.8814     13.8854      149.2042     69.3610      1.3335       1.2028       1.2310       0.4421       2.1428       93.2337      
612.0338     13.9273      147.2103     70.9345      1.3697       1.2241       1.2435       0.4518       2.1539       93.2991      
612.1862     13.8381      145.6799     72.6450      1.4491       1.2816       1.3196       0.4293       2.1697       93.5505      
612.3386     13.8499      146.9025     73.3674      1.5466       1.3484       2.0213       0.4099       2.1741       93.4924      
612.4910     13.9292      150.4388     73.6808      1.6697       1.4315       3.2762       0.4099       2.1686       93.0302      
612.6434     13.8957      153.5990     73.6813      1.6545       1.4252       2.7576       0.4031       2.1593       92.4660      
612.7958     13.8411      157.6909     73.9578      1.5428       1.3562       1.2437       0.4209       2.1273       91.8481      
612.9482     13.8210      161.9812     73.4818      1.3953       1.2596       1.0761       0.4518       2.1065       92.0361      
613.1006     13.8327      167.8294     72.4010      1.2368       1.1543       0.8715       0.4821       2.0765       92.7666      
613.2530     13.8495      169.8156     72.3764      1.1858       1.1217       0.8317       0.5215       2.0638       93.6354      
613.4054     13.8205      169.9176     73.1918      1.1780       1.1127       0.8638       0.5448       2.0562       94.5682      
613.5578     13.7934      168.9869     74.2047      1.2066       1.1283       0.8841       0.5548       2.0572       95.1106      
613.7102     13.7542      168.3703     74.9987      1.2384       1.1485       0.8783       0.5422       2.0592       95.5243      
613.8626     13.7174      169.5119     74.7099      1.2437       1.1604       0.8635       0.5433       2.0593       95.7055      
614.0150     13.7961      171.4219     73.5139      1.2348       1.1665       0.8626       0.5420       2.0576       95.8525      
614.1674     13.7500      172.9190     71.8572      1.2171       1.1613       0.8567       0.5436       2.0561       96.0205      
614.3198     13.6532      173.9005     70.8684      1.2053       1.1584       0.8446       0.5514       2.0548       96.2073      
614.4722     13.6247      173.8226     70.7281      1.2157       1.1644       0.8454       0.5557       2.0555       96.4337      
614.6246     13.5633      173.6515     70.2508      1.2360       1.1748       0.8651       0.5332       2.0575       96.6036      
614.7770     13.5495      174.0391     70.0805      1.2607       1.1905       0.8769       0.5239       2.0588       96.6206      
614.9294     13.6407      174.7042     70.4826      1.2773       1.2014       0.8774       0.5130       2.0602       96.5978      
615.0818     13.8072      175.3233     70.2171      1.2715       1.2044       0.8801       0.5085       2.0595       96.5692      
615.2342     13.4772      175.7152     69.1043      1.2559       1.2027       0.8929       0.4926       2.0559       96.5449      
615.3866     13.4253      176.1060     67.7468      1.2265       1.1908       0.8823       0.5002       2.0534       96.6840      
615.5390     13.3581      176.4871     67.0052      1.2015       1.1760       0.8566       0.5320       2.0516       96.8197      
615.6914     13.3043      176.5622     67.8027      1.1862       1.1620       0.8301       0.5418       2.0522       96.9109      
615.8438     13.1805      176.4540     69.8276      1.1855       1.1564       0.8246       0.5220       2.0552       97.0072      
615.9962     13.1409      176.5176     74.5837      1.2103       1.1637       0.8479       0.5100       2.0587       97.0191      
616.1486     13.1276      176.8470     78.2932      1.2325       1.1710       0.8818       0.4949       2.0629       96.9265      
616.3010     13.1437      177.3418     79.1320      1.2386       1.1706       0.8906       0.4803       2.0655       96.6841      
616.4534     13.2469      177.5277     77.5611      1.2321       1.1616       0.8769       0.4780       2.0674       96.6018      
616.6058     13.6089      177.7263     72.7613      1.2086       1.1399       0.8560       0.4917       2.0662       96.6684      
616.7582     14.0595      178.1029     69.2999      1.1897       1.1202       0.8552       0.5006       2.0632       96.8444      
616.9106     14.0945      179.1910     66.6665      1.1862       1.1157       0.8683       0.5063       2.0610       97.2331      
617.0630     13.9610      180.0019     66.2474      1.1983       1.1231       0.8683       0.5130       2.0591       97.3787      
617.2154     13.8975      180.4566     68.7582      1.2331       1.1458       0.8554       0.5152       2.0583       97.4505      
617.3678     13.8996      180.4583     70.3193      1.2610       1.1632       0.8530       0.5091       2.0576       97.4016      
617.5202     13.9365      180.4515     69.8850      1.2796       1.1761       0.8660       0.4954       2.0558       97.1665      
617.6726     13.9330      180.5983     68.5810      1.2803       1.1825       0.8678       0.5026       2.0542       97.0851      
617.8250     13.9135      180.5288     65.1349      1.2552       1.1723       0.8543       0.5149       2.0532       97.1525      
617.9774     13.9696      180.0562     62.9772      1.2284       1.1663       0.8497       0.5189       2.0535       97.2231      
618.1298     14.0902      179.0345     61.3986      1.1741       1.1454       0.8522       0.5317       2.0551       97.4154      
618.2822     14.1649      178.6297     61.4892      1.1531       1.1311       0.8569       0.5410       2.0563       97.5220      
618.4346     14.2225      178.3693     63.4049      1.1686       1.1305       0.8650       0.5315       2.0577       97.5116      
618.5870     14.2734      178.1162     64.7289      1.2045       1.1476       0.8902       0.5181       2.0585       97.4355      
618.7394     14.2931      176.5558     65.8905      1.2889       1.1826       0.9433       0.5262       2.0614       97.3489      
618.8918     14.2096      175.1429     65.8218      1.3292       1.1997       0.9932       0.5313       2.0654       97.3474      
619.0442     14.1573      173.0538     64.3618      1.3363       1.2041       1.0008       0.5382       2.0721       97.3316      
619.1966     14.1767      172.6893     63.1211      1.3107       1.1891       0.9571       0.5439       2.0772       97.2119      
619.3490     14.3075      172.5972     61.9145      1.2520       1.1518       0.9046       0.5356       2.0784       97.1972      
619.5014     14.3645      172.6366     62.2256      1.2352       1.1343       0.8677       0.5278       2.0773       97.2290      
619.6538     14.4130      172.7558     64.1002      1.2410       1.1327       0.8850       0.5242       2.0735       97.3343      
