~Version Section
VERS.   2.0:  CWLS Log ASCII Standard - Version 2.0
WRAP.    NO:  One data record per depth sample.
~Well Information Section
#MNEM.UNIT      VALUE                    DESCRIPTION
#---------      ----------               -----------
STRT.M              15.083               :START DEPTH
STOP.M          2214.06274               :STOP DEPTH
STEP.M               .1524               :STEP
NULL.          -999.250000               :NULL VALUE
COMP.                                    :Oil Company
WELL.          GOPAVARAM#3               :Non unique well name
FLD.                S-KNGM               :Field name
LOC.  82.076189, 16.510314             :Location
PROV.                   AP               :Province
SRVC.                                    :Service
DATE.           2012-06-22               :Date unloaded
UWI.           S-KNGM-GM-3               :Unique well id
~Curve Information Section
#MNEM.UNIT                   API CODE                 Curve Description
#---------                   ----------               -----------------
BOREHOLE-DEPTH.M                                   :DEPTH
CALI.IN                                   :
DT.US/F                                   :
GR.GAPI                                   :
LLD.OHMM                                   :
LLS.OHMM                                   :
MSFL.OHMM                                   :
NPHI.V/V                                   :
RHOB.G/C3                                   :
SP.MV                                   :
~A
# ...
1045.0022    15.3529      145.0023     50.8902      1.2652       1.1908       0.8498       0.4997       2.2332       92.2572      
1045.1547    14.1462      145.3919     51.7785      1.2356       1.1803       0.8365       0.4970       2.2285       92.2989      
1045.3070    13.4608      146.6790     51.1833      1.1908       1.1575       0.8475       0.4921       2.2181       92.3180      
1045.4595    12.7551      147.4940     50.6509      1.1654       1.1414       0.8533       0.4921       2.2041       92.3332      
1045.6118    12.6694      147.6989     50.0669      1.1652       1.1390       0.8339       0.4926       2.1952       92.2693      
1045.7642    12.6091      147.6544     50.2762      1.1580       1.1407       0.8163       0.4964       2.1900       92.2192      
1045.9166    12.6499      147.8585     52.1284      1.1254       1.1259       0.8085       0.5086       2.1930       92.2324      
1046.0690    12.7092      148.5364     53.3141      1.0859       1.1115       0.7931       0.5110       2.1993       92.3028      
1046.2214    12.8091      148.7261     54.6897      1.0534       1.0916       0.7785       0.4869       2.2095       92.3495      
1046.3738    13.0810      146.7521     55.2055      1.1025       1.1155       0.7809       0.4631       2.2230       92.3092      
1046.5262    12.8296      137.8222     54.1418      1.3466       1.2560       0.9715       0.4664       2.2483       91.7877      
1046.6786    12.4083      131.3539     53.2682      1.5614       1.3703       1.5960       0.4673       2.2783       91.2217      
1046.8310    12.4969      125.0850     52.6764      1.8828       1.5011       2.1442       0.4639       2.3119       89.7999      
1046.9834    12.7510      125.3049     52.7518      1.8562       1.4839       1.9444       0.4646       2.3324       89.2071      
1047.1359    13.2214      132.9441     53.6973      1.4810       1.3038       1.2400       0.4890       2.3243       89.4781      
1047.2882    13.2479      137.6967     53.9484      1.2902       1.1851       0.8839       0.5026       2.3040       90.1855      
1047.4407    13.0610      142.8132     52.8838      1.0900       1.0585       0.8379       0.5070       2.2661       91.7388      
1047.5930    13.4114      143.9417     51.8456      1.0710       1.0411       0.8338       0.5001       2.2363       92.2729      
1047.7454    13.6153      144.6312     49.7994      1.1055       1.0492       0.8236       0.4990       2.2104       92.7010      
1047.8978    13.4492      145.0101     48.6719      1.1257       1.0616       0.8172       0.4982       2.1933       92.7991      
1048.0502    13.4810      144.5704     46.4657      1.1278       1.0712       0.8288       0.5223       2.1765       92.8740      
1048.2026    13.9058      143.4183     45.4284      1.1195       1.0769       0.8423       0.5415       2.1654       92.8381      
1048.3550    13.6661      140.9124     44.4628      1.1293       1.0857       0.8324       0.5479       2.1600       92.8004      
1048.5074    13.6403      139.9089     45.3238      1.1328       1.0956       0.8356       0.5369       2.1602       92.7415      
1048.6598    13.9406      138.7568     47.2807      1.1514       1.1145       0.8491       0.5332       2.1698       92.7751      
1048.8122    14.3354      138.1551     47.5074      1.1614       1.1242       0.8673       0.5281       2.1805       92.7776      
1048.9646    14.1556      136.9358     47.7898      1.1684       1.1323       0.8583       0.5145       2.1969       92.7251      
1049.1171    14.3136      136.5126     47.7111      1.1775       1.1328       0.8558       0.5145       2.2078       92.6925      
1049.2694    14.1608      136.8380     46.9872      1.1626       1.1268       0.8488       0.5114       2.2214       92.7247      
1049.4219    13.8561      137.7168     47.2154      1.1434       1.1172       0.8385       0.5020       2.2282       92.7961      
1049.5742    14.2974      138.8644     48.6721      1.1173       1.1007       0.8204       0.5243       2.2347       92.8836      
1049.7266    14.6015      139.1620     48.9264      1.1072       1.0971       0.8169       0.5358       2.2360       92.9435      
1049.8790    14.1812      139.2845     47.9320      1.1030       1.0921       0.8189       0.5330       2.2317       92.9710      
1050.0314    14.3567      139.2280     47.0589      1.1066       1.0903       0.8029       0.5299       2.2273       92.8051      
1050.1838    14.6589      139.0738     45.8745      1.1050       1.0841       0.7778       0.5204       2.2162       92.3940      
1050.3362    14.3541      139.0400     45.4447      1.0936       1.0758       0.7627       0.5006       2.2104       92.1242      
1050.4886    13.4861      138.8866     45.6167      1.0795       1.0679       0.7243       0.4932       2.2070       92.0101      
1050.6410    13.4254      138.1322     46.5013      1.0803       1.0665       0.7271       0.5028       2.2073       91.9270      
1050.7934    13.9031      137.1613     47.7113      1.1025       1.0741       0.7315       0.5267       2.2105       91.7999      
1050.9458    14.3567      138.1852     47.4592      1.1203       1.0818       0.7437       0.5153       2.2126       91.7679      
1051.0983    14.7502      140.5603     46.5225      1.1358       1.0874       0.7557       0.4880       2.2137       91.8614      
1051.2506    14.5170      141.8942     46.8056      1.1349       1.0924       0.7670       0.4991       2.2139       91.8984      
1051.4031    12.9614      142.8787     47.9744      1.1435       1.1040       0.7718       0.5380       2.2183       91.8259      
1051.5554    13.0191      143.5917     49.1870      1.2000       1.1407       0.7824       0.5423       2.2241       91.6578      
1051.7078    13.5472      144.5882     50.5285      1.2851       1.1951       0.8568       0.5185       2.2344       91.3407      
1051.8602    13.7144      144.9751     51.1249      1.3584       1.2373       0.9740       0.5242       2.2404       90.9352      
1052.0126    13.8134      144.9597     51.4575      1.3951       1.2572       0.9825       0.5493       2.2448       90.6088      
1052.1650    13.8487      144.6252     51.7349      1.3481       1.2280       0.9139       0.5514       2.2421       90.6539      
1052.3174    14.0222      144.4569     52.4805      1.2753       1.1829       0.8281       0.5181       2.2342       90.9063      
1052.4698    13.9030      144.9096     53.3987      1.2005       1.1347       0.8160       0.5117       2.2259       91.2369      
1052.6222    13.7451      145.5049     53.4469      1.1421       1.0920       0.7901       0.5056       2.2118       91.4087      
1052.7747    13.6802      145.6918     51.2505      1.1077       1.0639       0.7646       0.5170       2.2041       91.2253      
1052.9270    13.5075      145.3063     48.8435      1.0892       1.0484       0.7662       0.5227       2.1945       90.9738      
1053.0795    13.6295      142.6776     47.8544      1.1216       1.0795       0.7839       0.5122       2.1920       90.5046      
1053.2318    13.7671      138.6830     47.6200      1.1912       1.1428       0.8989       0.5023       2.1968       89.8415      
1053.3843    13.7076      131.1265     48.7228      1.4398       1.3594       1.3461       0.4894       2.2111       88.1007      
1053.5366    13.9407      122.6672     50.1039      1.8096       1.6664       2.0990       0.4595       2.2427       86.1334      
1053.6890    14.1151      112.9009     50.3324      2.6217       2.2430       3.0228       0.4320       2.2817       83.3618      
1053.8414    13.9387      105.8339     49.4840      3.4519       2.7621       4.7716       0.3875       2.3327       81.2971      
1053.9938    13.8455      104.3525     47.5180      4.0996       3.1058       6.5848       0.3527       2.3652       80.3580      
1054.1462    13.7464      107.1772     46.1936      4.0145       3.0708       6.5960       0.3236       2.3881       80.3716      
1054.2986    13.7025      119.1467     46.0222      2.9135       2.4682       4.2735       0.3488       2.3731       81.7993      
