~Version Section
VERS.   2.0:  CWLS Log ASCII Standard - Version 2.0
WRAP.    NO:  One data record per depth sample.
~Well Information Section
#MNEM.UNIT      VALUE                    DESCRIPTION
#---------      ----------               -----------
STRT.M              15.083               :START DEPTH
STOP.M          2214.06274               :STOP DEPTH
STEP.M               .1524               :STEP
NULL.          -999.250000               :NULL VALUE
COMP.                                    :Oil Company
WELL.          GOPAVARAM#3               :Non unique well name
FLD.                S-KNGM               :Field name
LOC.  82.076189, 16.510314             :Location
PROV.                   AP               :Province
SRVC.                                    :Service
DATE.           2012-06-22               :Date unloaded
UWI.           S-KNGM-GM-3               :Unique well id
~Curve Information Section
#MNEM.UNIT                   API CODE                 Curve Description
#---------                   ----------               -----------------
BOREHOLE-DEPTH.M                                   :DEPTH
CALI.IN                                   :
DT.US/F                                   :
GR.GAPI                                   :
LLD.OHMM                                   :
LLS.OHMM                                   :
MSFL.OHMM                                   :
NPHI.V/V                                   :
RHOB.G/C3                                   :
SP.MV                                   :
~A
# ...
1337.9150    11.8509      135.5094     56.2011      1.2442       1.1845       0.7755       0.4991       2.3032       81.7168      
1338.0674    11.8215      135.3705     55.8673      1.2414       1.1963       0.8073       0.4922       2.2946       81.5005      
1338.2198    11.7995      135.0096     55.3899      1.2366       1.2116       0.8548       0.4920       2.2836       81.3063      
1338.3722    11.8498      134.1395     54.9454      1.2276       1.2284       0.9066       0.4851       2.2807       81.1659      
1338.5247    11.9176      133.3740     55.3557      1.2139       1.2380       0.9489       0.4730       2.2806       81.0575      
1338.6770    11.8764      132.6332     57.0973      1.1851       1.2369       0.9186       0.4618       2.2821       80.9330      
1338.8295    11.7785      131.1231     58.6386      1.1793       1.2444       0.8965       0.4600       2.2879       80.8171      
1338.9818    11.8125      128.3669     59.2339      1.2507       1.2928       0.9461       0.4748       2.2997       80.6445      
1339.1343    11.8761      126.4569     59.4286      1.3419       1.3406       1.2665       0.4868       2.3240       80.4408      
1339.2866    11.9292      128.2944     59.1601      1.4517       1.3604       1.7800       0.4739       2.3403       80.1406      
1339.4390    11.7472      131.8635     58.9077      1.4696       1.3342       1.8466       0.4577       2.3491       79.9118      
1339.5914    11.7768      137.5083     59.6003      1.3320       1.2369       1.3309       0.4816       2.3295       79.8131      
1339.7438    11.7707      141.2628     60.7453      1.2102       1.1564       0.8591       0.5098       2.2869       79.7440      
1339.8962    11.8191      139.9658     60.8399      1.1275       1.1029       0.8604       0.5090       2.2535       79.3467      
1340.0486    11.8292      135.7242     59.6890      1.1337       1.1090       0.8836       0.5104       2.2296       78.5874      
1340.2010    11.9713      123.6572     57.0960      1.3035       1.2509       1.0250       0.5004       2.2482       76.3797      
1340.3534    12.2622      111.9332     54.5810      1.5408       1.4554       1.4038       0.4969       2.2940       73.8535      
1340.5059    12.2321      95.4100      50.5182      2.2640       2.1124       2.2853       0.4555       2.3586       69.3115      
1340.6582    12.0660      84.2837      47.8656      3.0952       2.8445       4.1212       0.3768       2.4332       65.8676      
1340.8107    12.0239      75.8849      45.2611      5.2635       4.4056       7.0608       0.2880       2.4917       61.7020      
1340.9630    12.1006      72.9212      43.5136      6.9334       5.4198       9.3900       0.2156       2.5419       59.3302      
1341.1155    12.1003      74.8045      41.9663      8.2018       5.9782       9.6641       0.1907       2.5631       56.8538      
1341.2678    12.0747      76.9809      41.3418      8.1004       5.8645       9.1254       0.1848       2.5687       55.5380      
1341.4202    12.0737      78.6588      41.3056      7.1710       5.1140       8.0379       0.1954       2.5571       54.8106      
1341.5726    12.0122      78.4723      41.6457      6.9158       4.8239       7.2875       0.2099       2.5433       54.6312      
1341.7250    12.0146      75.7662      42.6017      7.6323       5.2158       7.8702       0.2138       2.5384       54.9390      
1341.8774    12.1644      73.5436      43.2624      8.6455       5.8686       9.4376       0.2070       2.5451       55.4456      
1342.0298    12.0054      71.9146      46.2164      11.1428      7.3154       11.7663      0.1934       2.5693       56.9679      
1342.1822    11.8177      73.8283      49.8405      10.9675      7.3523       13.4808      0.1838       2.5917       58.3839      
1342.3346    11.9235      84.7795      57.2651      6.7582       5.6593       13.0348      0.1909       2.5958       61.0814      
1342.4871    11.9406      93.3976      60.1935      4.5245       4.1778       9.1698       0.2156       2.5791       62.6286      
1342.6394    11.9550      107.2641     61.2430      2.4036       2.0058       4.1416       0.2898       2.5101       63.9962      
1342.7919    12.1360      112.3779     59.7624      1.8824       1.5222       1.9985       0.3483       2.4349       63.7267      
1342.9442    12.2847      115.6535     52.1423      1.5071       1.2742       1.7706       0.3628       2.3319       61.1804      
1343.0967    12.2310      116.0143     47.3607      1.4391       1.2203       1.7797       0.3655       2.2562       59.3518      
1343.2490    12.2261      116.1135     41.4219      1.4721       1.2263       1.7149       0.3470       2.1912       56.7241      
1343.4014    12.1906      116.1561     40.1566      1.5077       1.2546       1.6743       0.3312       2.1560       55.8092      
1343.5538    11.8519      116.1406     40.2022      1.5932       1.3199       1.7182       0.3239       2.1379       55.4152      
1343.7062    11.7511      116.2816     41.7666      1.6009       1.3586       1.7320       0.3210       2.1332       55.6291      
1343.8586    11.6706      117.3211     45.7840      1.5617       1.3857       1.6947       0.3313       2.1415       56.2396      
1344.0110    11.6459      117.8242     47.8616      1.5116       1.3749       1.6502       0.3453       2.1527       56.9602      
1344.1634    11.6371      118.5738     51.9102      1.4225       1.3413       1.6040       0.3655       2.1732       58.2249      
1344.3158    11.5789      119.9155     53.3246      1.3863       1.3268       1.5625       0.3717       2.1846       59.1815      
1344.4683    11.6486      122.8800     52.6566      1.3797       1.3262       1.6049       0.3802       2.1955       59.9761      
1344.6206    11.7408      123.6097     51.1184      1.4049       1.3358       1.6517       0.3620       2.1973       59.5738      
1344.7731    11.5556      123.4723     49.4734      1.4461       1.3443       1.6034       0.3423       2.1863       58.3785      
1344.9254    11.6026      122.9229     49.6466      1.4397       1.3248       1.5889       0.3379       2.1775       57.3806      
1345.0779    11.6356      121.8518     51.2491      1.3997       1.2861       1.6530       0.3567       2.1625       56.6646      
1345.2302    11.6005      121.5218     53.1061      1.3582       1.2592       1.5882       0.3687       2.1571       57.3369      
1345.3826    11.5853      121.5505     54.8685      1.3415       1.2454       1.4256       0.3915       2.1574       59.0380      
1345.5350    11.5825      121.6265     52.8781      1.3721       1.2663       1.4267       0.3935       2.1585       59.9635      
1345.6874    11.6071      121.7241     47.9241      1.4354       1.2981       1.4845       0.3722       2.1555       60.2927      
1345.8398    11.6329      121.9508     45.2802      1.4723       1.3138       1.5191       0.3574       2.1512       59.9341      
1345.9922    11.5956      122.1645     43.8109      1.4813       1.3213       1.5295       0.3550       2.1524       59.8462      
1346.1446    11.5937      122.2833     45.6984      1.4679       1.3160       1.4956       0.3671       2.1587       61.0026      
1346.2970    11.6090      122.6654     49.7822      1.4643       1.3121       1.5401       0.3872       2.1765       62.4637      
1346.4495    11.6246      123.5014     52.7905      1.4803       1.3052       1.6240       0.3756       2.1840       62.5490      
1346.6018    11.6029      125.0554     55.6022      1.4799       1.2789       1.6720       0.3454       2.1848       61.9600      
1346.7543    11.6097      126.7762     57.4164      1.4148       1.2167       1.5876       0.3468       2.1869       61.9880      
1346.9066    11.6523      128.2356     59.8432      1.3132       1.1405       1.4231       0.3916       2.1998       63.3138      
1347.0591    11.6547      127.6066     60.6044      1.2591       1.1033       1.2037       0.4059       2.2146       65.9265      
1347.2114    11.6936      126.2468     59.3489      1.2674       1.1131       1.1732       0.4146       2.2381       68.2132      
