~Version Section
VERS.   2.0:  CWLS Log ASCII Standard - Version 2.0
WRAP.    NO:  One data record per depth sample.
~Well Information Section
#MNEM.UNIT      VALUE                    DESCRIPTION
#---------      ----------               -----------
STRT.M              15.083               :START DEPTH
STOP.M          2214.06274               :STOP DEPTH
STEP.M               .1524               :STEP
NULL.          -999.250000               :NULL VALUE
COMP.                                    :Oil Company
WELL.          GOPAVARAM#3               :Non unique well name
FLD.                S-KNGM               :Field name
LOC.  82.076189, 16.510314             :Location
PROV.                   AP               :Province
SRVC.                                    :Service
DATE.           2012-06-22               :Date unloaded
UWI.           S-KNGM-GM-3               :Unique well id
~Curve Information Section
#MNEM.UNIT                   API CODE                 Curve Description
#---------                   ----------               -----------------
BOREHOLE-DEPTH.M                                   :DEPTH
CALI.IN                                   :
DT.US/F                                   :
GR.GAPI                                   :
LLD.OHMM                                   :
LLS.OHMM                                   :
MSFL.OHMM                                   :
NPHI.V/V                                   :
RHOB.G/C3                                   :
SP.MV                                   :
~A
# ...
1772.5598    8.5628       104.8047     65.2004      1.8372       1.6419       2.4062       0.4070       2.4981       -148.7320    
1772.7123    8.6124       92.3112      62.4664      1.8172       1.6327       2.4346       0.4089       2.4673       -146.9157    
1772.8646    8.5571       105.8268     63.0584      1.8337       1.6557       2.4854       0.3936       2.4545       -146.0479    
1773.0171    8.5104       103.7500     66.6102      1.8721       1.6933       2.4017       0.3708       2.4721       -145.7059    
1773.1694    8.4464       104.0625     64.9535      1.8127       1.6516       2.5049       0.3865       2.4687       -145.7463    
1773.3218    8.4431       105.5632     60.8170      1.7392       1.5986       2.2617       0.4145       2.4340       -145.2795    
1773.4742    8.4500       106.8066     61.0520      1.7279       1.5934       2.0753       0.4385       2.4210       -144.2501    
1773.6266    8.4499       105.3516     64.1848      1.7310       1.6015       2.2819       0.4196       2.4392       -143.8346    
1773.7790    8.4623       86.7969      70.5514      1.7707       1.6415       2.6119       0.4101       2.4725       -143.6360    
1773.9314    8.4773       102.0768     68.7414      1.8357       1.7013       2.2382       0.3892       2.4773       -143.6838    
1774.0839    8.4601       103.0664     69.2606      1.8427       1.7136       2.5639       0.3922       2.4730       -143.3934    
1774.2362    8.4980       104.3750     65.3708      1.7897       1.6624       2.4493       0.3932       2.4528       -143.2574    
1774.3887    8.5035       94.3750      65.4643      1.7929       1.6604       2.6335       0.4086       2.4345       -143.1912    
1774.5410    8.5207       105.1009     67.4960      1.8084       1.6707       2.2379       0.4087       2.4687       -142.9522    
1774.6935    8.4992       103.3887     68.8154      1.7908       1.6587       2.4384       0.4044       2.5237       -142.9963    
1774.8458    8.5173       104.0332     72.2824      1.8196       1.6833       2.5639       0.4051       2.5388       -142.7059    
1774.9982    8.5050       103.0339     71.7430      1.8098       1.6677       2.4281       0.4141       2.5290       -142.6287    
1775.1506    8.6098       103.4766     72.0195      1.7880       1.6402       2.4258       0.4057       2.5301       -142.5074    
1775.3030    8.6161       102.8418     74.4985      1.7401       1.6038       2.1968       0.4076       2.5315       -142.5588    
1775.4554    8.6809       102.7246     74.6625      1.8082       1.6590       2.0201       0.3798       2.5014       -142.5037    
1775.6078    8.6641       100.7747     73.7604      1.7840       1.6354       2.1920       0.3984       2.4742       -142.2647    
1775.7602    8.5479       99.9414      66.3266      1.7565       1.6073       3.0694       0.3983       2.4331       -142.4853    
1775.9126    8.9575       98.8574      61.0411      1.7111       1.5614       1.8487       0.4044       2.4098       -142.7941    
1776.0651    9.2627       100.3548     59.4126      1.6226       1.4798       1.3854       0.4185       2.4092       -142.8713    
1776.2174    9.1148       91.4779      59.7781      1.5207       1.3936       1.3648       0.4184       2.3856       -142.9926    
1776.3699    9.0042       88.8770      54.8669      1.5382       1.4150       1.4367       0.4265       2.3538       -143.3529    
1776.5222    8.7456       81.2305      51.7663      1.8132       1.6396       1.6294       0.3511       2.4107       -143.8455    
1776.6747    8.6553       73.8053      47.1294      1.8643       1.6719       2.3403       0.2768       2.5262       -144.2279    
1776.8270    8.5150       84.8633      49.9852      1.7629       1.5771       3.1786       0.2550       2.5122       -144.1324    
1776.9794    8.5913       90.1400      51.2385      1.7145       1.5225       1.9306       0.3145       2.4290       -143.7721    
1777.1318    8.6780       101.5169     53.9298      1.4396       1.2844       1.4935       0.4059       2.3983       -143.1618    
1777.2842    8.8618       109.9414     57.2191      1.3410       1.1842       1.4197       0.4489       2.4248       -142.7133    
1777.4366    8.5711       110.0391     59.0923      1.3989       1.2193       1.6244       0.4385       2.4604       -142.5110    
1777.5890    8.5391       109.2318     62.3728      1.4508       1.2608       1.6973       0.4421       2.4872       -142.5000    
1777.7414    8.5531       108.9844     63.6365      1.4650       1.2787       1.7406       0.4250       2.4889       -142.3235    
1777.8938    8.6031       108.6719     63.6218      1.5315       1.3375       1.7046       0.4393       2.4713       -142.3125    
1778.0463    8.6491       109.4401     63.3059      1.5286       1.3333       1.8485       0.4175       2.4643       -142.2537    
1778.1986    8.6341       109.8828     61.9442      1.5088       1.3125       1.9422       0.4228       2.4315       -142.4265    
1778.3511    8.6474       110.4427     60.5688      1.4854       1.2933       1.7652       0.4388       2.3730       -142.4375    
1778.5034    8.7581       111.7415     59.7595      1.4228       1.2471       1.5953       0.4438       2.3423       -142.2610    
1778.6559    8.8413       112.6855     56.3489      1.3778       1.2053       1.4764       0.4388       2.3619       -142.1324    
1778.8082    8.8647       112.1354     56.0968      1.3661       1.1913       1.5684       0.4518       2.3845       -141.9485    
1778.9606    8.7629       112.0215     55.3465      1.4065       1.2282       1.7674       0.4626       2.3793       -141.8199    
1779.1130    8.7672       109.8600     59.9045      1.4860       1.2934       1.7529       0.4749       2.4113       -141.9301    
1779.2654    8.6926       109.8145     59.5063      1.4915       1.3027       1.7306       0.4156       2.4674       -142.1728    
1779.4178    8.6529       110.4297     62.0738      1.5572       1.3646       1.9521       0.4166       2.4771       -142.2463    
1779.5702    8.6532       106.8457     60.0631      1.6495       1.4538       1.6920       0.4206       2.4521       -142.3088    
1779.7226    8.6458       105.7812     61.3329      1.6703       1.4884       1.8631       0.4326       2.4519       -142.5478    
1779.8750    8.6114       103.8867     57.2529      1.7917       1.5990       2.4327       0.4072       2.4682       -143.0330    
1780.0275    8.6067       99.8340      58.5573      1.9042       1.7055       2.0962       0.4013       2.4607       -143.7683    
1780.1798    8.6226       100.6543     56.1826      1.8693       1.6857       1.9726       0.3782       2.4422       -144.6359    
1780.3323    8.4539       103.1087     59.2649      1.8382       1.6808       2.7541       0.3609       2.4107       -146.3932    
1780.4846    8.4683       106.0547     55.8325      1.9998       1.8243       2.4263       0.3500       2.3885       -147.4411    
1780.6371    8.7560       105.0293     57.7323      2.0729       1.8735       2.2468       0.3536       2.4475       -147.3235    
1780.7894    8.6261       101.3314     56.0725      1.9887       1.7891       2.4562       0.3513       2.5148       -147.1360    
1780.9418    8.6187       99.8633      59.2376      1.9160       1.7293       2.6167       0.3642       2.4935       -146.8897    
1781.0942    8.6514       100.2376     61.5857      1.8040       1.6401       1.7807       0.3935       2.4573       -146.1692    
1781.2466    8.6697       108.1185     66.6525      1.6429       1.4885       1.8274       0.4238       2.4713       -145.3604    
1781.3990    8.7251       106.4941     69.0723      1.6821       1.4968       2.2705       0.3989       2.5030       -145.0184    
1781.5514    8.7619       105.4199     69.3762      1.7280       1.5310       2.4531       0.4120       2.4971       -144.7647    
1781.7038    8.8081       104.7591     69.7950      1.7099       1.5246       1.9273       0.4209       2.5062       -144.5735    
1781.8562    8.7789       106.1100     70.9621      1.6600       1.4916       1.9088       0.4534       2.4938       -144.4449    
