~Version Section
VERS.   2.0:  CWLS Log ASCII Standard - Version 2.0
WRAP.    NO:  One data record per depth sample.
~Well Information Section
#MNEM.UNIT      VALUE                    DESCRIPTION
#---------      ----------               -----------
STRT.M              15.083               :START DEPTH
STOP.M          2214.06274               :STOP DEPTH
STEP.M               .1524               :STEP
NULL.          -999.250000               :NULL VALUE
COMP.                                    :Oil Company
WELL.          GOPAVARAM#3               :Non unique well name
FLD.                S-KNGM               :Field name
LOC.  82.076189, 16.510314             :Location
PROV.                   AP               :Province
SRVC.                                    :Service
DATE.           2012-06-22               :Date unloaded
UWI.           S-KNGM-GM-3               :Unique well id
~Curve Information Section
#MNEM.UNIT                   API CODE                 Curve Description
#---------                   ----------               -----------------
BOREHOLE-DEPTH.M                                   :DEPTH
CALI.IN                                   :
DT.US/F                                   :
GR.GAPI                                   :
LLD.OHMM                                   :
LLS.OHMM                                   :
MSFL.OHMM                                   :
NPHI.V/V                                   :
RHOB.G/C3                                   :
SP.MV                                   :
~A
# ...
893.8214     14.6645      146.5396     71.5879      1.2615       1.2107       0.9389       0.5003       2.2264       93.1485      
893.9738     14.7168      148.6343     70.0544      1.2486       1.2024       0.9333       0.4882       2.2237       93.1919      
894.1262     14.8438      150.8087     67.2457      1.2208       1.1917       0.9117       0.4771       2.2168       93.2199      
894.2786     14.9182      152.0830     66.4132      1.2153       1.1902       0.9026       0.4827       2.2076       93.1538      
894.4310     14.8400      153.0629     66.9164      1.2093       1.1867       0.9175       0.5095       2.1927       93.0847      
894.5834     14.8541      153.0595     67.8571      1.2088       1.1842       0.9361       0.5176       2.1787       93.0467      
894.7358     14.8962      151.4746     70.1865      1.1951       1.1750       0.9399       0.5115       2.1649       93.0040      
894.8882     14.9448      150.3682     71.3059      1.1802       1.1666       0.9349       0.5129       2.1565       93.0308      
895.0406     15.0267      147.8064     73.8841      1.1747       1.1589       0.9357       0.5045       2.1551       93.1453      
895.1930     15.0892      144.5701     75.3004      1.1890       1.1676       0.9472       0.5013       2.1568       93.2014      
895.3454     15.3041      138.1769     76.3530      1.2225       1.1907       0.9649       0.4953       2.1660       93.1750      
895.4978     15.5130      138.7189     76.4996      1.2386       1.2010       0.9785       0.4828       2.1749       93.0709      
895.6502     15.3760      144.3418     74.3477      1.2553       1.2190       0.9884       0.4594       2.1865       92.9211      
895.8026     15.2759      145.1836     71.6681      1.2741       1.2209       1.0037       0.4475       2.1954       92.7977      
895.9550     15.5656      144.1593     66.7864      1.3023       1.2256       1.0151       0.4581       2.2022       92.6200      
896.1074     15.7126      144.5827     65.5525      1.3165       1.2323       1.0132       0.4743       2.2029       92.4774      
896.2598     15.6422      145.9135     66.1774      1.3076       1.2367       1.0288       0.4830       2.1957       92.0948      
896.4122     15.4780      147.1264     68.6747      1.2888       1.2317       1.0232       0.4846       2.1871       91.8300      
896.5646     15.2439      150.7306     74.5050      1.2709       1.2170       0.9960       0.5157       2.1693       91.4720      
896.7170     15.0936      151.4705     76.8726      1.2789       1.2162       0.9813       0.5215       2.1584       91.3602      
896.8694     15.3922      149.2110     77.3759      1.3027       1.2141       0.9833       0.5151       2.1466       91.4507      
897.0218     15.4473      147.6950     74.7556      1.3222       1.2136       0.9708       0.5244       2.1408       91.6027      
897.1742     15.4491      147.2241     69.7216      1.3197       1.2089       0.9606       0.5240       2.1357       91.8222      
897.3266     15.1015      147.6994     67.6498      1.2920       1.1947       0.9652       0.5174       2.1353       91.8929      
897.4790     15.0454      148.3326     66.2883      1.2674       1.1823       0.9393       0.5034       2.1375       91.9739      
897.6314     15.0534      148.2196     67.7091      1.2705       1.1782       0.9255       0.5047       2.1411       92.0534      
897.7838     14.9666      147.7176     71.4449      1.2836       1.1836       0.9347       0.5109       2.1515       92.1398      
897.9362     14.8960      147.5197     73.9825      1.2952       1.1865       0.9333       0.5087       2.1571       92.1865      
898.0886     14.8385      147.4840     76.6417      1.2846       1.1834       0.8895       0.5015       2.1673       92.2913      
898.2410     14.7729      147.3887     77.3725      1.2729       1.1815       0.8655       0.5094       2.1718       92.4089      
898.3934     14.6981      146.8709     77.1387      1.2654       1.1779       0.8885       0.5072       2.1797       92.5078      
898.5458     14.6220      145.7601     75.7726      1.2639       1.1851       0.9273       0.4874       2.1816       92.6014      
898.6982     14.5900      143.9541     74.2194      1.2746       1.1974       0.9789       0.5313       2.1795       92.5818      
898.8506     14.6183      142.7500     74.3204      1.3009       1.2177       1.0090       0.5375       2.1778       92.5310      
899.0030     14.6144      141.7411     75.2043      1.3282       1.2380       1.0699       0.5142       2.1718       92.4381      
899.1554     14.5823      141.9965     75.8052      1.3468       1.2499       1.1176       0.4940       2.1711       92.4430      
899.3078     14.4259      142.9497     75.8616      1.3536       1.2542       1.1127       0.4832       2.1756       92.5340      
899.4602     14.3800      144.4996     75.1988      1.3347       1.2378       1.0628       0.4697       2.1791       92.5944      
899.6126     14.2996      146.5784     73.9725      1.3081       1.2151       1.0007       0.4708       2.1850       92.6396      
899.7650     14.2574      148.8080     71.8075      1.2670       1.1863       0.9444       0.4947       2.1857       92.7203      
899.9174     14.2110      151.1442     69.7895      1.2309       1.1610       0.8912       0.5094       2.1815       92.8481      
900.0698     14.2227      152.4743     69.7349      1.2168       1.1481       0.8881       0.5312       2.1735       93.0897      
900.2222     14.1577      153.2956     70.1631      1.2176       1.1446       0.8876       0.5232       2.1598       93.2830      
900.3746     14.1770      153.8120     71.0522      1.2418       1.1550       0.9284       0.5068       2.1523       93.3460      
900.5270     14.1387      154.8182     71.9713      1.2628       1.1665       0.9620       0.5064       2.1467       93.3149      
900.6794     14.0707      156.9421     71.1204      1.2621       1.1691       0.9474       0.4992       2.1498       92.9350      
900.8318     14.0744      159.1186     68.7220      1.2424       1.1615       0.9140       0.5059       2.1569       92.4994      
900.9842     14.0577      160.9571     64.5723      1.1961       1.1435       0.8885       0.5057       2.1577       92.2076      
901.1366     13.9325      162.2592     61.6220      1.1550       1.1293       0.8833       0.5331       2.1537       92.1322      
901.2890     13.9157      162.8217     60.8374      1.1330       1.1224       0.8677       0.5328       2.1444       92.4917      
901.4414     13.8588      162.9156     60.7216      1.1361       1.1250       0.8697       0.5120       2.1308       92.8300      
901.5938     13.7849      161.8818     62.5313      1.1780       1.1441       0.8800       0.5116       2.1246       92.9794      
901.7462     13.7306      160.4754     64.6185      1.2183       1.1601       0.8852       0.5318       2.1206       93.0109      
901.8986     13.6817      158.0145     65.1605      1.2737       1.1853       0.9030       0.5343       2.1244       92.7527      
902.0510     13.6049      155.9678     64.5640      1.2978       1.1998       0.9222       0.5289       2.1325       92.5528      
902.2034     13.6307      153.8258     63.4693      1.2687       1.1913       0.9050       0.5170       2.1407       92.6088      
902.3558     13.6861      152.3719     62.6937      1.2483       1.1790       0.8759       0.5042       2.1495       92.7895      
902.5082     14.0114      150.3535     62.7844      1.2072       1.1503       0.8459       0.5040       2.1514       93.1492      
902.6606     14.1574      148.4595     63.7713      1.1871       1.1320       0.8216       0.5125       2.1505       93.4065      
902.8130     13.8071      145.1392     65.4913      1.1841       1.1302       0.8368       0.5226       2.1499       93.4194      
902.9654     13.7236      142.8720     66.6135      1.1810       1.1356       0.8636       0.5324       2.1510       93.2429      
903.1178     13.6524      141.2350     68.6784      1.2041       1.1454       0.8950       0.5339       2.1571       92.8755      
