~Version Section
VERS.   2.0:  CWLS Log ASCII Standard - Version 2.0
WRAP.    NO:  One data record per depth sample.
~Well Information Section
#MNEM.UNIT      VALUE                    DESCRIPTION
#---------      ----------               -----------
STRT.M              15.083               :START DEPTH
STOP.M          2214.06274               :STOP DEPTH
STEP.M               .1524               :STEP
NULL.          -999.250000               :NULL VALUE
COMP.                                    :Oil Company
WELL.          GOPAVARAM#3               :Non unique well name
FLD.                S-KNGM               :Field name
LOC.  82.076189, 16.510314             :Location
PROV.                   AP               :Province
SRVC.                                    :Service
DATE.           2012-06-22               :Date unloaded
UWI.           S-KNGM-GM-3               :Unique well id
~Curve Information Section
#MNEM.UNIT                   API CODE                 Curve Description
#---------                   ----------               -----------------
BOREHOLE-DEPTH.M                                   :DEPTH
CALI.IN                                   :
DT.US/F                                   :
GR.GAPI                                   :
LLD.OHMM                                   :
LLS.OHMM                                   :
MSFL.OHMM                                   :
NPHI.V/V                                   :
RHOB.G/C3                                   :
SP.MV                                   :
~A
# ...
459.1766     18.3414      173.1259     55.4764      1.1889       0.8983       1.1022       -999.2500    -999.2500    22.8929      
459.3290     18.4854      172.5236     55.9752      1.2077       0.9089       1.1379       -999.2500    -999.2500    22.2840      
459.4814     18.5366      173.0251     56.4891      1.2062       0.9071       1.1392       -999.2500    -999.2500    21.8668      
459.6338     18.5520      173.5020     56.8452      1.1971       0.9043       1.1349       -999.2500    -999.2500    21.7930      
459.7862     18.5500      173.4225     56.4580      1.2058       0.9061       1.1517       -999.2500    -999.2500    22.1579      
459.9386     18.5600      173.3997     56.2062      1.2244       0.9112       1.1837       -999.2500    -999.2500    22.5287      
460.0910     18.5455      174.8239     56.4365      1.2450       0.9146       1.2745       -999.2500    -999.2500    22.2903      
460.2434     18.5068      177.4983     56.4640      1.2535       0.9110       1.3661       -999.2500    -999.2500    21.8053      
460.3958     18.4897      180.7937     56.5172      1.2178       0.8839       1.2576       -999.2500    -999.2500    21.5255      
460.5482     18.4800      183.7662     56.8782      1.1719       0.8493       1.0891       -999.2500    -999.2500    21.5013      
460.7006     18.4371      185.7189     57.4087      1.1344       0.8238       1.0509       -999.2500    -999.2500    21.9961      
460.8530     18.3933      187.5219     58.1537      1.1163       0.8133       1.0217       -999.2500    -999.2500    22.4388      
461.0054     18.3897      189.1416     58.3919      1.1307       0.8234       1.0308       -999.2500    -999.2500    22.4073      
461.1578     18.4202      190.5679     57.3791      1.1489       0.8376       1.0436       -999.2500    -999.2500    22.3405      
461.3102     18.4689      191.9436     55.0078      1.1491       0.8449       1.0320       -999.2500    -999.2500    22.2710      
461.4626     18.4532      192.9453     53.3821      1.1329       0.8457       1.0016       -999.2500    -999.2500    22.3718      
461.6150     18.2642      193.1181     52.5218      1.0959       0.8271       0.9674       -999.2500    -999.2500    22.9404      
461.7674     18.0937      192.9792     52.0513      1.0672       0.8095       0.9432       -999.2500    -999.2500    23.5739      
461.9198     18.0001      192.7730     52.6570      1.0620       0.8024       0.9351       -999.2500    -999.2500    24.3194      
462.0722     17.9586      192.7874     53.0672      1.0750       0.8068       0.9517       -999.2500    -999.2500    24.7626      
462.2246     17.9132      193.2229     52.0505      1.1084       0.8226       0.9970       -999.2500    -999.2500    24.8206      
462.3770     17.8836      193.4866     51.0231      1.1294       0.8344       1.0346       -999.2500    -999.2500    24.5286      
462.5294     17.8720      193.2320     50.7164      1.1291       0.8295       1.0232       -999.2500    -999.2500    23.9911      
462.6818     17.8782      192.9065     51.0886      1.1151       0.8194       0.9948       -999.2500    -999.2500    23.8574      
462.8342     17.9201      192.5215     52.7155      1.0861       0.8053       0.9673       -999.2500    -999.2500    23.9989      
462.9866     17.9584      192.4558     53.9951      1.0690       0.8010       0.9597       -999.2500    -999.2500    24.1209      
463.1390     17.9614      193.0461     54.2779      1.0684       0.8020       0.9836       -999.2500    -999.2500    24.0657      
463.2914     17.9279      193.6598     53.5968      1.0727       0.8126       1.0091       -999.2500    -999.2500    23.9953      
463.4438     17.8417      194.7483     51.1673      1.0939       0.8325       1.0458       -999.2500    -999.2500    24.0731      
463.5962     17.8032      195.5146     49.7389      1.1122       0.8516       1.0854       -999.2500    -999.2500    23.8920      
463.7486     17.7698      195.7258     50.7761      1.1394       0.8741       1.0960       -999.2500    -999.2500    23.5090      
463.9010     17.7637      195.0527     52.6134      1.1507       0.8840       1.0907       -999.2500    -999.2500    23.1909      
464.0534     17.7921      193.1286     54.5380      1.1501       0.8673       1.0856       -999.2500    -999.2500    22.8861      
464.2058     17.8138      192.4843     54.6126      1.1382       0.8515       1.0715       -999.2500    -999.2500    23.0657      
464.3582     17.8222      192.7905     52.9626      1.1061       0.8182       1.0298       -999.2500    -999.2500    23.4382      
464.5106     17.8170      193.1770     51.5109      1.0889       0.8017       1.0025       -999.2500    -999.2500    23.5488      
464.6630     17.8027      194.0896     49.9039      1.0716       0.7853       0.9828       -999.2500    -999.2500    24.0092      
464.8154     17.8073      194.4637     50.0788      1.0718       0.7795       0.9687       -999.2500    -999.2500    23.9305      
464.9678     17.8697      194.3490     51.1872      1.0724       0.7806       0.9690       -999.2500    -999.2500    24.1170      
465.1202     17.9763      193.4503     51.3035      1.0770       0.7894       0.9618       -999.2500    -999.2500    24.1645      
465.2726     18.2391      189.4323     50.9993      1.0813       0.8107       0.9627       -999.2500    -999.2500    24.1649      
465.4250     18.2915      186.8061     50.8982      1.0787       0.8292       0.9756       -999.2500    -999.2500    24.1030      
465.5774     18.2139      184.1509     51.0265      1.0653       0.8662       1.0069       -999.2500    -999.2500    23.7202      
465.7298     18.1994      184.0000     50.8698      1.0628       0.8712       1.0015       -999.2500    -999.2500    23.5334      
465.8822     18.2869      184.0000     49.9344      1.0663       0.8700       0.9732       -999.2500    -999.2500    23.4085      
466.0346     18.3521      184.0113     49.9123      1.0828       0.8517       0.9801       -999.2500    -999.2500    23.6416      
466.1870     18.3930      184.1999     50.0542      1.0855       0.8461       1.0273       -999.2500    -999.2500    23.9859      
466.3394     18.3500      184.4148     49.7402      1.0860       0.8456       1.0191       -999.2500    -999.2500    24.1548      
466.4918     18.2055      184.6175     49.5913      1.0924       0.8450       1.0061       -999.2500    -999.2500    24.4414      
466.6442     18.2062      184.5242     49.8016      1.0981       0.8398       0.9991       -999.2500    -999.2500    24.2614      
466.7966     18.4911      184.4684     49.5657      1.0994       0.8253       0.9959       -999.2500    -999.2500    23.8712      
466.9490     18.7985      184.6694     48.5771      1.1000       0.8193       0.9661       -999.2500    -999.2500    23.5946      
467.1014     19.0757      184.9544     46.9565      1.1065       0.8250       0.9657       -999.2500    -999.2500    23.4601      
467.2538     19.1281      185.2462     46.8095      1.1206       0.8380       1.0379       -999.2500    -999.2500    23.6164      
467.4062     19.1583      186.7598     47.4563      1.1456       0.8615       1.1105       -999.2500    -999.2500    23.8089      
467.5586     19.1556      189.3619     48.5158      1.1571       0.8747       1.1089       -999.2500    -999.2500    23.7689      
467.7110     19.1327      193.4501     49.8464      1.1622       0.8871       1.0770       -999.2500    -999.2500    23.6303      
467.8634     19.1435      194.6115     49.2329      1.1498       0.8772       1.0447       -999.2500    -999.2500    23.6183      
468.0158     19.1664      195.0000     47.6682      1.1324       0.8554       1.0126       -999.2500    -999.2500    23.6337      
468.1682     19.1745      195.0000     46.7466      1.1236       0.8411       0.9910       -999.2500    -999.2500    23.8077      
468.3206     19.1823      194.9985     45.6901      1.1158       0.8329       0.9735       -999.2500    -999.2500    24.0109      
468.4730     19.1753      194.7763     45.8312      1.1192       0.8341       1.0001       -999.2500    -999.2500    24.1325      
