~Version Section
VERS.   2.0:  CWLS Log ASCII Standard - Version 2.0
WRAP.    NO:  One data record per depth sample.
~Well Information Section
#MNEM.UNIT      VALUE                    DESCRIPTION
#---------      ----------               -----------
STRT.M              15.083               :START DEPTH
STOP.M          2214.06274               :STOP DEPTH
STEP.M               .1524               :STEP
NULL.          -999.250000               :NULL VALUE
COMP.                                    :Oil Company
WELL.          GOPAVARAM#3               :Non unique well name
FLD.                S-KNGM               :Field name
LOC.  82.076189, 16.510314             :Location
PROV.                   AP               :Province
SRVC.                                    :Service
DATE.           2012-06-22               :Date unloaded
UWI.           S-KNGM-GM-3               :Unique well id
~Curve Information Section
#MNEM.UNIT                   API CODE                 Curve Description
#---------                   ----------               -----------------
BOREHOLE-DEPTH.M                                   :DEPTH
CALI.IN                                   :
DT.US/F                                   :
GR.GAPI                                   :
LLD.OHMM                                   :
LLS.OHMM                                   :
MSFL.OHMM                                   :
NPHI.V/V                                   :
RHOB.G/C3                                   :
SP.MV                                   :
~A
# ...
752.0894     20.2468      159.6040     68.6215      1.2526       1.1868       0.6925       0.5096       2.1116       92.0524      
752.2418     18.9025      159.3272     66.5597      1.2847       1.1973       0.6976       0.4905       2.1161       91.9944      
752.3942     18.0423      159.0528     65.5498      1.2845       1.2000       0.6936       0.4739       2.1183       91.9847      
752.5466     18.9807      158.3172     64.7097      1.2510       1.1742       0.6841       0.4733       2.1165       91.9269      
752.6990     19.9996      157.7688     65.3569      1.2278       1.1628       0.6748       0.4765       2.1142       91.9153      
752.8514     20.9508      156.7510     67.0040      1.2028       1.1391       0.6658       0.4797       2.1156       92.0042      
753.0038     21.4065      156.4033     67.3297      1.2104       1.1398       0.6701       0.4846       2.1193       92.0121      
753.1562     21.7854      155.9749     68.7716      1.2565       1.1605       0.6970       0.4679       2.1294       91.9936      
753.3086     21.4133      156.0541     69.2184      1.2859       1.1740       0.7373       0.4575       2.1355       92.0080      
753.4610     19.0767      156.6517     68.0079      1.3188       1.1910       0.7929       0.4658       2.1363       92.0068      
753.6134     18.6666      157.1003     67.2690      1.3220       1.1944       0.8154       0.4676       2.1346       92.0096      
753.7658     20.9807      157.7578     66.7112      1.3130       1.1927       0.8097       0.4680       2.1268       91.9610      
753.9182     20.2680      158.3096     67.4271      1.3069       1.1936       0.8066       0.4755       2.1214       91.9341      
754.0706     19.1561      159.5129     69.8918      1.3034       1.1976       0.8227       0.5096       2.1152       91.7928      
754.2230     19.6162      160.0986     71.0683      1.3037       1.2003       0.8646       0.5179       2.1112       91.7305      
754.3754     20.9226      160.1618     72.5818      1.3022       1.1993       0.9176       0.5087       2.1082       91.7718      
754.5278     21.4758      159.5952     73.0995      1.2975       1.1944       0.9204       0.5059       2.1093       91.8540      
754.6802     20.8856      158.5820     72.7648      1.2895       1.1845       0.8765       0.4874       2.1150       91.9428      
754.8326     19.0257      158.0740     72.6154      1.2851       1.1777       0.8391       0.4748       2.1211       91.9882      
754.9850     20.5450      157.6435     72.5911      1.2781       1.1728       0.7805       0.4747       2.1314       92.0159      
755.1374     20.5001      157.5677     71.9321      1.2680       1.1691       0.7253       0.4731       2.1339       91.9672      
755.2898     19.7500      157.3234     71.1011      1.2534       1.1614       0.6973       0.5159       2.1334       91.9010      
755.4422     20.6307      156.8989     70.1825      1.2398       1.1519       0.7269       0.5054       2.1295       91.8942      
755.5946     20.6912      156.3071     67.9169      1.2207       1.1385       0.7609       0.5183       2.1209       91.9400      
755.7470     19.8360      156.0145     65.8352      1.2096       1.1330       0.7297       0.5211       2.1182       92.0033      
755.8994     19.3173      155.5676     63.2605      1.2040       1.1314       0.6755       0.5089       2.1181       92.0320      
756.0518     19.3272      155.0241     60.9974      1.2120       1.1401       0.6942       0.5233       2.1215       92.0181      
756.2042     19.6992      154.5266     58.9724      1.2260       1.1550       0.7337       0.5033       2.1304       92.0277      
756.3566     19.9462      154.8203     59.9060      1.2405       1.1639       0.7416       0.5060       2.1362       92.1189      
756.5090     20.4399      155.4278     62.1071      1.2549       1.1717       0.7424       0.4799       2.1411       92.2321      
756.6614     20.4794      155.9376     64.6795      1.2655       1.1779       0.7727       0.4743       2.1422       92.2098      
756.8138     19.7362      156.5010     67.6282      1.2761       1.1844       0.8244       0.4759       2.1414       92.1361      
756.9662     19.5988      157.7396     70.0547      1.2793       1.1896       0.8280       0.4871       2.1402       92.0951      
757.1186     19.3753      159.7994     72.8523      1.2752       1.1883       0.7893       0.4534       2.1400       92.1212      
757.2710     19.6520      162.4993     74.0464      1.2665       1.1817       0.7337       0.4480       2.1373       92.2143      
757.4234     18.5011      165.0536     73.3388      1.2615       1.1773       0.6985       0.4646       2.1300       92.3008      
757.5758     18.4019      166.1559     70.5252      1.2680       1.1767       0.6965       0.4771       2.1225       92.3159      
757.7282     18.3525      166.5334     67.6794      1.2811       1.1831       0.7256       0.4686       2.1124       92.2698      
757.8806     18.6876      166.5206     64.8970      1.2974       1.1930       0.7645       0.4616       2.1089       92.2844      
758.0330     19.2339      166.9581     62.8963      1.3056       1.1954       0.7915       0.4739       2.1069       92.3346      
758.1854     18.4751      168.5277     62.6246      1.2995       1.1872       0.7734       0.4834       2.1055       92.4418      
758.3378     17.3024      169.9565     62.7696      1.2859       1.1754       0.7471       0.4859       2.1015       92.5737      
758.4902     17.3142      170.1676     63.1231      1.2631       1.1610       0.7257       0.4974       2.0964       92.7812      
758.6426     17.7618      169.5936     62.9595      1.2488       1.1528       0.7092       0.5185       2.0919       93.0093      
758.7950     17.9931      168.4497     61.7178      1.2466       1.1538       0.7089       0.5202       2.0921       93.2542      
758.9474     18.2808      167.9455     60.8597      1.2503       1.1535       0.7170       0.5166       2.0958       93.3652      
759.0998     18.7136      168.2962     60.6361      1.2570       1.1622       0.7187       0.5112       2.1016       93.3447      
759.2522     19.0925      168.3996     60.6594      1.2578       1.1698       0.7171       0.5110       2.1075       93.2763      
759.4046     19.1641      167.1337     60.2960      1.2528       1.1753       0.7250       0.5017       2.1125       93.2060      
759.5570     19.1394      165.6206     59.5591      1.2498       1.1736       0.7491       0.5143       2.1174       93.2283      
759.7094     19.0543      163.7347     58.6301      1.2446       1.1710       0.7824       0.5210       2.1191       93.2846      
759.8618     19.1242      162.9954     58.5563      1.2436       1.1731       0.8012       0.5082       2.1190       93.2776      
760.0142     19.5522      163.4929     59.7734      1.2416       1.1760       0.7965       0.5055       2.1148       93.2239      
760.1666     19.4821      164.1256     61.0957      1.2444       1.1787       0.7867       0.4966       2.1089       93.2139      
760.3190     18.9748      164.7895     64.5021      1.2497       1.1729       0.7888       0.4866       2.1048       93.1952      
760.4714     18.6642      164.8914     66.8547      1.2544       1.1724       0.8152       0.5095       2.1035       93.1868      
760.6238     18.4740      164.4603     68.5910      1.2629       1.1769       0.8584       0.5390       2.1077       93.1421      
760.7762     18.3435      164.1469     69.2528      1.2677       1.1764       0.8946       0.5321       2.1134       93.0892      
760.9286     18.5908      163.7735     69.4031      1.2669       1.1789       0.9104       0.5085       2.1200       93.0114      
761.0810     18.8202      163.5188     68.7854      1.2647       1.1767       0.8802       0.4892       2.1237       92.9878      
761.2334     18.9730      162.7441     67.2702      1.2602       1.1786       0.7915       0.4834       2.1218       92.8624      
761.3858     19.2237      162.1345     66.8400      1.2609       1.1765       0.7187       0.4872       2.1179       92.7745      
