~Version Section
VERS.   2.0:  CWLS Log ASCII Standard - Version 2.0
WRAP.    NO:  One data record per depth sample.
~Well Information Section
#MNEM.UNIT      VALUE                    DESCRIPTION
#---------      ----------               -----------
STRT.M              15.083               :START DEPTH
STOP.M          2214.06274               :STOP DEPTH
STEP.M               .1524               :STEP
NULL.          -999.250000               :NULL VALUE
COMP.                                    :Oil Company
WELL.          GOPAVARAM#3               :Non unique well name
FLD.                S-KNGM               :Field name
LOC.  82.076189, 16.510314             :Location
PROV.                   AP               :Province
SRVC.                                    :Service
DATE.           2012-06-22               :Date unloaded
UWI.           S-KNGM-GM-3               :Unique well id
~Curve Information Section
#MNEM.UNIT                   API CODE                 Curve Description
#---------                   ----------               -----------------
BOREHOLE-DEPTH.M                                   :DEPTH
CALI.IN                                   :
DT.US/F                                   :
GR.GAPI                                   :
LLD.OHMM                                   :
LLS.OHMM                                   :
MSFL.OHMM                                   :
NPHI.V/V                                   :
RHOB.G/C3                                   :
SP.MV                                   :
~A
# ...
2207.2046    8.3327       93.9941      57.9583      3.7100       3.3273       3.7602       0.5848       2.5465       -136.0625    
2207.3569    8.3740       92.3958      57.9583      3.6667       3.3089       3.7602       0.5882       2.5564       -136.0625    
2207.5095    8.2627       91.6309      57.9583      3.6709       3.3353       3.7602       0.5882       2.5454       -136.0625    
2207.6619    8.0894       89.8242      57.9583      3.6749       3.3425       3.7602       0.5882       2.5546       -136.0625    
2207.8142    8.3960       89.3490      57.9583      3.6730       3.3401       3.7602       0.5882       2.5442       -136.0625    
2207.9665    8.4006       87.3763      57.9583      3.6773       3.3391       3.7602       0.5882       2.5613       -136.0625    
2208.1191    8.3364       86.4714      57.9583      3.6745       3.3414       3.7602       0.5882       2.5734       -136.0625    
2208.2715    8.4106       88.3236      57.9583      3.6770       3.3465       3.7602       0.5882       2.5659       -136.0625    
2208.4238    8.4979       90.0651      57.9583      3.7122       3.3396       3.7602       0.5882       2.5525       -136.0625    
2208.5762    8.5058       93.1055      57.9583      10.8058      3.3811       3.7602       0.5882       2.5424       -136.0625    
2208.7285    8.5425       96.2956      57.9583      57.6138      25.9519      3.7602       0.5882       2.5280       -136.0625    
2208.8811    8.5775       97.3014      57.9583      60.5200      27.4620      3.7602       0.5882       2.5194       -136.0625    
2209.0334    8.5459       97.6953      57.9583      60.5200      27.3816      3.7602       0.5882       2.5155       -136.0625    
2209.1858    8.5413       98.1771      57.9583      28876.3633   27.2299      3.7602       0.5882       2.5215       -136.0625    
2209.3381    8.5975       97.5130      57.9583      1969.6841    26.8538      3.7602       0.5882       2.5030       -136.0625    
2209.4907    8.5358       97.5293      57.9583      13.6181      4.6458       3.7602       0.5882       2.4916       -136.0625    
2209.6431    8.5032       97.0182      57.9583      3.6811       3.3360       3.7602       0.5882       2.4766       -136.0625    
2209.7954    8.4763       95.6413      57.9583      3.6890       3.3604       3.7602       0.5882       2.4697       -136.0625    
2209.9477    8.4857       94.9512      57.9583      3.6901       3.3616       3.7602       0.5882       2.4798       -136.0625    
2210.1003    8.4981       95.1302      57.9583      3.6901       3.3616       3.7602       0.5882       2.4985       -136.0625    
2210.2527    8.4650       94.7754      57.9583      3.6901       3.3616       3.7602       0.5882       2.5112       -136.0625    
2210.4050    8.3860       94.0625      57.9583      3.6901       3.3616       3.7602       0.5882       2.4951       -136.0625    
2210.5574    8.2430       93.9518      57.9583      3.6901       3.3616       3.7602       0.5882       2.4845       -136.0625    
2210.7097    8.2395       93.9030      57.9583      3.6901       3.3616       3.7602       0.5882       2.5199       -136.0625    
2210.8623    8.3298       93.8835      57.9583      3.6901       3.3616       3.7602       0.5882       2.5976       -136.0625    
2211.0146    8.3937       93.8574      57.9583      3.6901       3.3616       3.7602       0.5882       2.6758       -136.0625    
2211.1670    8.3942       93.8412      57.9583      3.6901       3.3616       3.7602       0.5882       2.7187       -136.0625    
2211.3193    8.3363       93.8200      57.9583      3.6901       3.3616       3.7602       0.5882       2.6743       -136.0625    
2211.4719    8.3262       93.7930      57.9583      3.6901       3.3616       3.7602       0.5882       2.6675       -136.0625    
2211.6243    8.3287       93.7930      57.9583      3.6901       3.3616       3.7602       0.5882       2.6615       -136.0625    
2211.7766    8.3296       93.7852      57.9583      3.6901       3.3616       3.7602       0.5882       2.6693       -136.0625    
2211.9289    8.3199       93.7812      57.9583      3.6901       3.3616       3.7602       0.5882       2.6714       -136.0625    
2212.0815    8.3079       93.7969      57.9583      3.6901       3.3616       3.7602       0.5882       2.6757       -136.0625    
2212.2339    8.2999       93.7917      57.9583      3.6901       3.3616       3.7602       0.5882       2.6711       -136.0625    
2212.3862    8.2967       93.7891      57.9583      3.6901       3.3616       3.7602       0.5882       2.6698       -136.0625    
2212.5386    8.2938       93.7891      57.9583      3.6901       3.3616       3.7602       0.5882       2.6655       -136.0625    
2212.6909    8.2905       93.7891      57.9583      3.6901       3.3616       3.7602       0.5882       2.4308       -136.0625    
2212.8435    4.8100       93.7891      57.9583      3.6901       3.3616       3.7602       0.5882       2.1902       -136.0625    
2212.9958    3.2071       93.7891      57.9583      3.6901       3.3616       3.7602       0.5882       2.0353       -136.0625    
2213.1482    3.1259       93.7891      57.9583      3.6901       3.3616       3.7602       0.5882       2.0079       -136.0625    
2213.3005    3.1197       93.7891      57.9583      3.6901       3.3616       3.7602       0.5882       2.0470       -136.0625    
2213.4531    3.1193       93.7891      57.9583      3.6901       3.3616       3.7602       0.5882       2.0589       -136.0625    
2213.6055    3.1193       93.7891      57.9583      3.6901       3.3616       3.7602       0.5882       2.0486       -136.0625    
2213.7578    3.1193       93.7891      57.9583      3.6901       3.3616       3.7602       0.5882       2.0388       -136.0625    
2213.9101    3.1193       93.7891      57.9583      3.6901       3.3616       3.7602       0.5882       2.0383       -136.0625    
2214.0627    3.1193       93.7891      57.9583      3.6901       3.3616       3.7602       0.5882       2.0383       -136.0625    
