~Version Section
VERS.   2.0:  CWLS Log ASCII Standard - Version 2.0
WRAP.    NO:  One data record per depth sample.
~Well Information Section
#MNEM.UNIT      VALUE                    DESCRIPTION
#---------      ----------               -----------
STRT.M              15.083               :START DEPTH
STOP.M          2214.06274               :STOP DEPTH
STEP.M               .1524               :STEP
NULL.          -999.250000               :NULL VALUE
COMP.                                    :Oil Company
WELL.          GOPAVARAM#3               :Non unique well name
FLD.                S-KNGM               :Field name
LOC.  82.076189, 16.510314             :Location
PROV.                   AP               :Province
SRVC.                                    :Service
DATE.           2012-06-22               :Date unloaded
UWI.           S-KNGM-GM-3               :Unique well id
~Curve Information Section
#MNEM.UNIT                   API CODE                 Curve Description
#---------                   ----------               -----------------
BOREHOLE-DEPTH.M                                   :DEPTH
CALI.IN                                   :
DT.US/F                                   :
GR.GAPI                                   :
LLD.OHMM                                   :
LLS.OHMM                                   :
MSFL.OHMM                                   :
NPHI.V/V                                   :
RHOB.G/C3                                   :
SP.MV                                   :
~A
# ...
166.2638     22.6938      170.2639     24.9828      3.9282       2.7870       0.9926       -999.2500    -999.2500    -17.9589     
166.4162     22.6906      170.7483     25.6146      3.8637       2.7466       0.9871       -999.2500    -999.2500    -17.9393     
166.5686     22.6878      170.8670     26.2488      3.8032       2.7128       0.9668       -999.2500    -999.2500    -17.9322     
166.7210     22.6846      170.4927     26.7400      3.7073       2.6767       0.9314       -999.2500    -999.2500    -17.8956     
166.8734     22.6822      170.2751     26.9950      3.6288       2.6526       0.8965       -999.2500    -999.2500    -17.8323     
167.0258     22.6831      170.2270     26.8540      3.5427       2.6247       0.8751       -999.2500    -999.2500    -17.7483     
167.1782     22.6859      170.0835     26.4398      3.4877       2.6030       0.8568       -999.2500    -999.2500    -17.6367     
167.3306     22.6919      169.5653     26.2929      3.4400       2.5873       0.8455       -999.2500    -999.2500    -17.4922     
167.4830     22.6954      169.2476     26.8509      3.4115       2.5847       0.8385       -999.2500    -999.2500    -17.3904     
167.6354     22.7003      169.3986     27.6581      3.3761       2.5845       0.8351       -999.2500    -999.2500    -17.2251     
167.7878     22.7034      169.5860     27.7841      3.3490       2.5810       0.8327       -999.2500    -999.2500    -17.1130     
167.9402     22.7050      169.4503     27.5126      3.2780       2.5379       0.8321       -999.2500    -999.2500    -16.9653     
168.0926     22.7053      169.4113     26.9575      3.2067       2.4855       0.8309       -999.2500    -999.2500    -16.8697     
168.2450     22.7035      172.1491     25.6513      3.0275       2.3454       0.8271       -999.2500    -999.2500    -16.6528     
168.3974     22.7006      175.5359     25.2762      2.8917       2.2346       0.8225       -999.2500    -999.2500    -16.5244     
168.5498     22.6942      178.8245     26.2829      2.7276       2.0865       0.8204       -999.2500    -999.2500    -16.3816     
168.7022     22.6912      178.3831     27.8457      2.6858       2.0375       0.8297       -999.2500    -999.2500    -16.1791     
168.8546     22.6874      176.8565     33.0290      2.7749       2.0933       0.8809       -999.2500    -999.2500    -16.0535     
169.0070     22.6850      179.2339     37.2376      2.8895       2.1781       1.0254       -999.2500    -999.2500    -15.8744     
169.1594     22.6315      188.9055     44.9478      3.1115       2.3244       1.2494       -999.2500    -999.2500    -15.7245     
169.3118     22.2550      192.3409     48.4274      3.2241       2.3958       1.3707       -999.2500    -999.2500    -15.6359     
169.4642     20.8144      189.8011     52.5868      3.3463       2.4884       1.4519       -999.2500    -999.2500    -15.4428     
169.6166     20.0066      186.0724     55.3488      3.3761       2.5205       1.8455       -999.2500    -999.2500    -15.2584     
169.7690     19.4753      178.6173     58.0239      3.3446       2.5525       2.5782       -999.2500    -999.2500    -14.8160     
169.9214     19.4243      175.8431     57.7984      3.2811       2.5135       3.0106       -999.2500    -999.2500    -14.4858     
170.0738     19.4607      173.9203     58.8098      3.1041       2.3781       2.9324       -999.2500    -999.2500    -14.0993     
170.2262     19.4880      174.0158     59.8088      2.9846       2.2741       2.7730       -999.2500    -999.2500    -13.8945     
170.3786     19.5285      175.9489     61.0589      2.7995       2.0970       2.6061       -999.2500    -999.2500    -13.5946     
170.5310     19.5378      178.0163     62.0308      2.7088       2.0117       2.3928       -999.2500    -999.2500    -13.4633     
170.6834     19.5172      182.4409     64.6493      2.6009       1.9119       2.0581       -999.2500    -999.2500    -13.2832     
170.8358     19.4314      183.7399     66.4147      2.5685       1.8846       1.9489       -999.2500    -999.2500    -13.2517     
170.9882     19.2695      184.9994     68.6480      2.5591       1.8849       1.8637       -999.2500    -999.2500    -13.3057     
171.1406     19.1788      186.1817     68.8417      2.5445       1.8829       2.0242       -999.2500    -999.2500    -13.3911     
171.2930     19.0829      187.4359     69.0948      2.4894       1.8619       2.1371       -999.2500    -999.2500    -13.5724     
171.4454     19.0568      186.4229     68.5212      2.4429       1.8362       2.0882       -999.2500    -999.2500    -13.6726     
171.5978     19.0223      183.7661     65.7082      2.3730       1.7964       1.8071       -999.2500    -999.2500    -13.8342     
171.7502     19.0194      182.9931     64.0806      2.3680       1.8109       1.9782       -999.2500    -999.2500    -13.8607     
171.9026     19.1248      182.8449     62.3889      2.3777       1.8498       2.3535       -999.2500    -999.2500    -13.9242     
172.0550     19.2665      183.4656     61.4438      2.3790       1.8673       2.3528       -999.2500    -999.2500    -13.9928     
172.2074     19.3814      184.9876     60.9908      2.3610       1.8679       2.1318       -999.2500    -999.2500    -14.0589     
172.3598     19.4224      186.1509     61.9481      2.2998       1.8199       1.9813       -999.2500    -999.2500    -14.1929     
172.5122     19.6104      187.2571     63.3299      2.1928       1.7388       1.8607       -999.2500    -999.2500    -14.3424     
172.6646     20.1504      186.6973     63.5546      2.1146       1.6723       1.6822       -999.2500    -999.2500    -14.4732     
172.8170     20.9341      184.8601     62.5190      2.0390       1.6070       1.3989       -999.2500    -999.2500    -14.6097     
172.9694     21.0714      183.1435     60.2557      2.0395       1.6085       1.3590       -999.2500    -999.2500    -14.6791     
173.1218     20.6668      181.3913     57.6607      2.0849       1.6502       1.5144       -999.2500    -999.2500    -14.7582     
173.2742     20.1334      179.7390     57.7881      2.1837       1.7281       1.8015       -999.2500    -999.2500    -14.8284     
173.4266     19.5122      176.6449     59.6404      2.3315       1.8428       2.0757       -999.2500    -999.2500    -14.8953     
173.5790     18.9291      173.6965     61.7033      2.4783       1.9547       2.1871       -999.2500    -999.2500    -14.9821     
173.7314     18.4135      171.2017     63.4144      2.6389       2.0745       2.1869       -999.2500    -999.2500    -15.1239     
173.8838     18.3726      171.6251     63.9831      2.7563       2.1627       1.8337       -999.2500    -999.2500    -15.3460     
174.0362     18.4428      173.1521     64.3579      2.8464       2.2359       1.4101       -999.2500    -999.2500    -15.5854     
174.1886     18.4757      174.0725     64.3865      2.8526       2.2560       1.4612       -999.2500    -999.2500    -15.7197     
174.3410     18.4815      173.9599     64.5443      2.8229       2.2387       1.7968       -999.2500    -999.2500    -15.7330     
174.4934     18.4715      172.4927     65.0529      2.7892       2.2061       2.0822       -999.2500    -999.2500    -15.5842     
174.6458     18.4981      171.2060     65.4603      2.7724       2.1755       2.2907       -999.2500    -999.2500    -15.4638     
174.7982     18.7196      171.9935     65.3341      2.7818       2.1592       2.5483       -999.2500    -999.2500    -15.4993     
174.9506     19.0050      174.1002     65.0004      2.7666       2.1292       2.7848       -999.2500    -999.2500    -15.6365     
175.1030     19.2567      177.9413     63.2047      2.6277       2.0122       2.6135       -999.2500    -999.2500    -15.7218     
175.2554     19.4210      181.7145     60.5828      2.4490       1.8686       2.2855       -999.2500    -999.2500    -15.6244     
175.4078     19.6085      184.8170     57.5728      2.1968       1.6782       1.9844       -999.2500    -999.2500    -15.3471     
175.5602     19.8700      187.4289     54.9464      2.0035       1.5319       1.5962       -999.2500    -999.2500    -15.1132     
