~Version Section
VERS.   2.0:  CWLS Log ASCII Standard - Version 2.0
WRAP.    NO:  One data record per depth sample.
~Well Information Section
#MNEM.UNIT      VALUE                    DESCRIPTION
#---------      ----------               -----------
STRT.M              15.083               :START DEPTH
STOP.M          2214.06274               :STOP DEPTH
STEP.M               .1524               :STEP
NULL.          -999.250000               :NULL VALUE
COMP.                                    :Oil Company
WELL.          GOPAVARAM#3               :Non unique well name
FLD.                S-KNGM               :Field name
LOC.  82.076189, 16.510314             :Location
PROV.                   AP               :Province
SRVC.                                    :Service
DATE.           2012-06-22               :Date unloaded
UWI.           S-KNGM-GM-3               :Unique well id
~Curve Information Section
#MNEM.UNIT                   API CODE                 Curve Description
#---------                   ----------               -----------------
BOREHOLE-DEPTH.M                                   :DEPTH
CALI.IN                                   :
DT.US/F                                   :
GR.GAPI                                   :
LLD.OHMM                                   :
LLS.OHMM                                   :
MSFL.OHMM                                   :
NPHI.V/V                                   :
RHOB.G/C3                                   :
SP.MV                                   :
~A
# ...
2065.4726    8.4519       100.3613     85.2124      2.9311       2.5734       3.1813       0.4132       2.5385       -137.7537    
2065.6250    8.4418       100.8333     85.6432      2.7154       2.3766       3.7356       0.3971       2.5130       -137.6912    
2065.7773    8.4385       99.9609      84.6828      2.6743       2.3402       3.8693       0.3872       2.5304       -137.8051    
2065.9299    8.4410       98.9193      86.5535      2.7562       2.4159       3.0957       0.3890       2.5562       -138.0478    
2066.0823    8.4406       96.4974      85.2628      2.7849       2.4436       3.1164       0.3937       2.5740       -138.0625    
2066.2346    8.4797       98.7728      81.9625      2.8343       2.4883       4.0636       0.3751       2.5701       -137.8861    
2066.3870    8.5031       99.1146      75.5031      3.0416       2.6738       4.1151       0.3712       2.5513       -137.7574    
2066.5395    8.5007       97.2461      71.0419      3.1745       2.7898       4.0263       0.3732       2.5292       -137.8088    
2066.6919    8.4775       98.3464      64.5862      3.1352       2.7522       4.3055       0.3776       2.5318       -137.9889    
2066.8442    8.4313       99.2383      64.3047      3.0612       2.6898       4.1370       0.3815       2.5233       -138.1764    
2066.9966    8.4358       98.9714      63.9205      3.0801       2.7011       3.4825       0.3959       2.5297       -138.4228    
2067.1489    8.4989       96.7285      65.5367      2.8951       2.5447       3.4819       0.4086       2.5224       -138.5551    
2067.3015    8.4853       98.1217      64.9868      2.7016       2.3733       3.9333       0.3946       2.5292       -138.6213    
2067.4538    8.4826       98.3073      66.0660      2.7637       2.4069       3.7315       0.3951       2.5082       -138.8603    
2067.6062    8.4828       97.4935      70.2003      2.7014       2.3510       3.6022       0.3912       2.4964       -138.9926    
2067.7585    8.4865       100.7129     70.7732      2.7496       2.3836       4.1088       0.3850       2.4858       -138.9412    
2067.9111    8.4980       101.1426     71.0817      3.0396       2.5860       4.4225       0.3662       2.4608       -139.0551    
2068.0635    8.4940       103.0892     69.4474      3.2884       2.7468       4.0721       0.3814       2.4207       -139.1213    
2068.2158    8.4975       107.3503     71.2106      3.2054       2.6611       4.9778       0.4163       2.3914       -138.9486    
2068.3682    8.4988       109.2480     75.4886      3.0944       2.5888       4.7313       0.4340       2.3936       -138.9963    
2068.5207    8.5095       109.3555     79.3694      2.8139       2.3918       3.9340       0.4346       2.4169       -139.1764    
2068.6731    8.5549       107.8613     80.2179      2.5070       2.1474       3.6072       0.4430       2.4328       -139.3639    
2068.8254    8.6028       107.1224     80.2310      2.2567       1.9497       3.6556       0.4374       2.4551       -139.4338    
2068.9778    8.6309       108.8249     82.6252      2.1018       1.8222       3.5034       0.4455       2.4598       -139.6139    
2069.1301    8.6460       111.2956     84.5216      1.9390       1.7031       2.8971       0.4285       2.4568       -139.7426    
2069.2827    8.6459       113.5645     85.8919      1.9989       1.7606       2.6751       0.4659       2.4557       -139.5147    
2069.4351    8.6477       109.1113     83.2625      2.2661       1.9830       2.6732       0.4535       2.4988       -139.5000    
2069.5874    8.6348       105.4948     80.8956      2.5801       2.2378       3.5846       0.4509       2.5512       -139.4412    
2069.7397    8.5644       103.4180     77.5616      2.9894       2.5736       5.0398       0.3886       2.5402       -139.2611    
2069.8923    8.5547       101.1263     79.4718      3.3370       2.8603       4.1159       0.3937       2.4918       -139.1324    
2070.0447    8.5529       103.1771     75.1393      3.2601       2.8036       4.3939       0.3807       2.4636       -139.0662    
2070.1970    8.5501       104.3327     72.5251      3.2903       2.8083       4.8681       0.3952       2.4862       -139.0625    
2070.3494    8.5407       103.3268     68.7841      3.2339       2.7406       4.6006       0.3874       2.4841       -139.0037    
2070.5019    8.5145       103.2422     72.9313      3.1004       2.6276       4.9943       0.3883       2.4612       -139.0000    
2070.6543    8.5093       105.2572     75.7688      3.0160       2.5524       4.4380       0.4019       2.4370       -139.0000    
2070.8066    8.5276       104.4922     76.1452      2.7521       2.3402       4.6156       0.3955       2.4402       -139.1764    
2070.9590    8.5775       105.7487     78.2266      2.6504       2.2617       4.5669       0.3999       2.4701       -139.4228    
2071.1113    8.6379       105.1497     79.5351      2.6754       2.2897       3.4986       0.4154       2.5015       -139.6139    
2071.2639    8.6605       104.1113     81.3423      2.6572       2.2823       3.8138       0.4165       2.5125       -139.5662    
2071.4163    8.6588       104.1927     82.1803      2.8355       2.4240       4.4866       0.4070       2.4883       -139.3861    
2071.5686    8.6975       102.8906     83.1364      3.0097       2.5657       4.5619       0.3896       2.4608       -139.1986    
2071.7209    8.7237       103.0078     85.4285      2.9925       2.5782       4.4030       0.4152       2.4501       -139.0699    
2071.8735    8.7499       103.4082     82.5091      2.9694       2.5698       4.0629       0.4211       2.4645       -139.1213    
2072.0259    8.7835       103.3138     79.8212      3.0027       2.6013       4.0679       0.4199       2.4817       -139.2426    
2072.1782    8.7896       102.5000     76.2862      3.0378       2.6241       4.1914       0.3866       2.4864       -139.4264    
2072.3306    8.8004       101.4356     77.4520      3.0554       2.6381       4.4406       0.3672       2.4829       -139.4963    
2072.4831    8.8055       100.6934     79.2756      3.1656       2.7204       4.4298       0.3662       2.5111       -139.3824    
2072.6355    8.7900       96.4714      78.4262      3.0188       2.5923       5.5530       0.3686       2.5740       -139.3750    
2072.7878    8.6381       96.8066      79.2781      2.9315       2.5083       7.5315       0.3739       2.6203       -139.3750    
2072.9402    8.6205       97.4154      75.5335      2.9336       2.5049       4.1413       0.3770       2.5703       -139.3750    
2073.0925    8.6178       97.9655      78.1639      2.8412       2.4293       4.2710       0.3749       2.5109       -139.2574    
2073.2451    8.6123       101.9857     75.7679      2.9301       2.4887       4.5640       0.3904       2.4797       -139.2500    
2073.3975    8.6124       102.5293     76.5811      3.0734       2.5813       4.7458       0.3828       2.4815       -139.1912    
2073.5498    8.6009       101.9922     71.7476      3.1291       2.6194       4.9507       0.3929       2.4759       -139.1287    
2073.7021    8.5847       102.0215     72.0081      3.1118       2.6166       4.8179       0.4027       2.4810       -139.1250    
2073.8547    8.5235       103.2227     72.6909      3.0646       2.5987       4.8224       0.4087       2.4781       -139.1250    
2074.0071    8.5083       102.8125     74.3054      3.0306       2.5743       4.6719       0.3955       2.4876       -139.1250    
2074.1594    8.4750       102.1159     71.7623      2.9217       2.4916       4.7722       0.3645       2.4917       -139.0662    
2074.3118    8.4419       102.7734     71.6684      2.8958       2.4738       4.7682       0.3521       2.4836       -138.8861    
2074.4641    8.4416       102.6042     67.7736      2.9306       2.4863       4.0422       0.3601       2.4843       -138.8162    
2074.6167    8.4442       100.9180     68.5251      2.7320       2.3272       4.2734       0.3883       2.5073       -138.7537    
2074.7690    8.4442       101.1263     68.9561      2.5691       2.2011       4.8302       0.4078       2.5740       -138.9264    
