~Version Section
VERS.   2.0:  CWLS Log ASCII Standard - Version 2.0
WRAP.    NO:  One data record per depth sample.
~Well Information Section
#MNEM.UNIT      VALUE                    DESCRIPTION
#---------      ----------               -----------
STRT.M              15.083               :START DEPTH
STOP.M          2214.06274               :STOP DEPTH
STEP.M               .1524               :STEP
NULL.          -999.250000               :NULL VALUE
COMP.                                    :Oil Company
WELL.          GOPAVARAM#3               :Non unique well name
FLD.                S-KNGM               :Field name
LOC.  82.076189, 16.510314             :Location
PROV.                   AP               :Province
SRVC.                                    :Service
DATE.           2012-06-22               :Date unloaded
UWI.           S-KNGM-GM-3               :Unique well id
~Curve Information Section
#MNEM.UNIT                   API CODE                 Curve Description
#---------                   ----------               -----------------
BOREHOLE-DEPTH.M                                   :DEPTH
CALI.IN                                   :
DT.US/F                                   :
GR.GAPI                                   :
LLD.OHMM                                   :
LLS.OHMM                                   :
MSFL.OHMM                                   :
NPHI.V/V                                   :
RHOB.G/C3                                   :
SP.MV                                   :
~A
# ...
1479.6470    11.8233      135.4004     49.4402      1.7289       1.5591       1.6206       0.4499       2.2231       61.9000      
1479.7994    11.6590      75.9440      50.1227      1.7593       1.5504       1.6145       0.4469       2.2202       61.9000      
1479.9518    11.5804      93.3691      50.9577      1.8223       1.5625       1.6079       0.4320       2.2207       61.9000      
1480.1042    11.6022      118.1576     49.5172      1.9363       1.5978       1.5883       0.4497       2.2333       61.9000      
1480.2566    11.5886      104.2318     48.9678      2.0674       1.6631       1.5955       0.4693       2.2489       61.9000      
1480.4090    11.5247      72.5846      48.7925      2.1983       1.7420       1.6691       0.4980       2.2798       61.9000      
1480.5614    11.5050      72.4512      47.3959      2.2820       1.8000       1.9031       0.5260       2.2994       61.9000      
1480.7139    11.4436      62.7148      47.5151      2.3255       1.8366       2.1569       0.5379       2.3222       61.9000      
1480.8662    11.4841      64.3750      43.3144      2.3064       1.8329       2.0730       0.5357       2.3278       61.9000      
1481.0187    11.6722      60.7031      47.3026      2.2820       1.8228       1.9100       0.5418       2.3259       61.9000      
1481.1710    11.8059      64.3359      45.7677      2.2823       1.8308       2.0076       0.5503       2.3196       61.9000      
1481.3235    11.9741      61.8164      47.4219      2.2773       1.8487       2.1558       0.5094       2.3122       61.9000      
1481.4758    12.0045      64.3262      44.7190      2.3445       1.9192       2.1312       0.4736       2.3191       61.9000      
1481.6282    12.0387      64.1602      44.0851      2.4757       2.0342       2.2919       0.4324       2.3450       61.9000      
1481.7806    12.0206      59.6940      48.9542      2.8195       2.3066       2.9578       0.4186       2.3786       61.9000      
1481.9330    11.9805      55.5957      49.9853      3.2798       2.6257       3.8719       0.3794       2.4321       61.9000      
1482.0854    11.8923      66.5332      46.6685      3.8711       2.9761       4.2413       0.3562       2.4659       61.9000      
1482.2378    11.7094      66.4779      36.5146      4.1884       3.1138       4.1408       0.3366       2.4945       61.9000      
1482.3903    11.6605      63.7272      29.9942      3.5738       2.7694       3.6319       0.3283       2.4907       61.9000      
1482.5426    11.6807      66.5625      28.5638      2.8036       2.3046       2.8582       0.3314       2.4624       61.9000      
1482.6951    11.7387      71.8555      29.5167      1.9979       1.6976       1.8579       0.3539       2.4174       61.9000      
1482.8474    11.7907      53.9062      30.1389      1.5422       1.3426       1.0929       0.4030       2.3561       61.9000      
1482.9999    11.7841      63.3464      32.9504      1.3665       1.2129       1.0272       0.4586       2.3038       61.9000      
1483.1522    11.7428      63.4668      32.4690      1.3504       1.2009       1.0599       0.5059       2.2534       61.9000      
1483.3046    11.6933      65.2832      32.3302      1.4809       1.2787       1.1281       0.5056       2.2297       61.9000      
1483.4570    11.6373      70.6869      30.9735      1.5815       1.3445       1.1954       0.4995       2.2146       61.9000      
1483.6094    11.5640      81.3379      29.3932      1.6106       1.3942       1.1778       0.4941       2.2174       61.9000      
1483.7618    11.5092      75.8073      28.8205      1.5787       1.4063       1.1230       0.4878       2.2252       61.9000      
1483.9142    11.5206      80.3158      28.6407      1.5226       1.3945       1.1063       0.4831       2.2317       61.9000      
1484.0666    11.5393      88.4050      30.1785      1.4927       1.3847       1.1257       0.4851       2.2395       61.9000      
1484.2190    11.5503      87.7441      29.0936      1.4768       1.3732       1.1399       0.4957       2.2509       61.9000      
1484.3715    11.5763      71.3574      29.7254      1.4750       1.3641       1.1339       0.4979       2.2649       61.9000      
1484.5238    11.5917      80.8496      31.6296      1.4696       1.3490       1.1268       0.4885       2.2873       61.9000      
1484.6763    11.6071      79.2773      33.2999      1.4647       1.3407       1.1473       0.4860       2.3084       61.9000      
1484.8286    11.6180      55.8268      33.8158      1.4659       1.3403       1.2791       0.4952       2.3229       61.9000      
1484.9811    11.6191      66.0482      31.2628      1.4588       1.3465       1.4127       0.4971       2.3310       61.9000      
1485.1334    11.5836      64.7168      30.9259      1.4131       1.3542       1.4257       0.4828       2.3298       61.9000      
1485.2858    11.5479      73.4375      30.2122      1.3942       1.3571       1.2603       0.4732       2.3275       61.9000      
1485.4382    11.5292      72.2428      29.8433      1.3559       1.3343       1.1408       0.4766       2.3278       61.9000      
1485.5906    11.4977      69.6387      30.0871      1.3293       1.3146       1.1070       0.4741       2.3306       61.9000      
1485.7430    11.4376      62.5391      30.7883      1.2823       1.2683       1.0826       0.4809       2.3374       61.9000      
1485.8954    11.4165      68.4147      34.0102      1.2526       1.2427       1.0513       0.4817       2.3414       61.9000      
1486.0478    11.4682      73.9681      33.8960      1.2107       1.2155       1.0065       0.4849       2.3428       61.9000      
1486.2002    11.5368      73.9746      33.4510      1.2059       1.2187       1.0075       0.4938       2.3425       61.9000      
1486.3527    11.5531      73.1543      31.4530      1.2438       1.2429       1.0479       0.4970       2.3426       61.6870      
1486.5050    11.5602      68.5938      31.5479      1.2391       1.2369       1.0856       0.5006       2.3458       58.8435      
1486.6575    11.5620      76.4290      33.0720      1.2316       1.2288       1.0931       0.4997       2.3540       55.8384      
1486.8098    11.4838      73.7044      33.6594      1.2241       1.2208       1.0691       0.4836       2.3605       52.8335      
1486.9623    11.5184      74.5801      35.6036      1.2166       1.2128       1.0578       0.4771       2.3667       49.8263      
1487.1146    11.5637      74.2220      35.4921      1.2091       1.2048       1.0867       0.4828       2.3685       46.8212      
1487.2670    11.6839      76.7904      36.6214      1.2016       1.1968       1.0928       0.5048       2.3675       43.8139      
1487.4194    11.7905      71.4844      34.2829      1.1940       1.1888       1.0462       0.5067       2.3666       40.8089      
1487.5718    11.9061      74.0430      30.4223      1.1865       1.1807       0.9724       0.5080       2.3653       37.8016      
1487.7242    11.9801      64.4206      29.0325      1.1790       1.1727       0.9733       0.5047       2.3649       34.7966      
1487.8766    11.9397      69.7754      28.1332      1.1715       1.1647       1.0109       0.5080       2.3638       31.7893      
1488.0290    11.9644      74.3652      31.4464      1.1640       1.1567       1.0087       0.5235       2.3619       28.7842      
1488.1814    11.9327      72.7637      31.4189      1.1565       1.1487       1.0029       0.5344       2.3591       25.7770      
1488.3339    11.8698      73.6263      32.6067      1.1490       1.1407       1.0159       0.5332       2.3578       22.7719      
1488.4862    11.8502      71.9889      32.0952      1.1415       1.1327       1.0175       0.5232       2.3566       19.7647      
1488.6387    11.8385      72.8809      32.2397      1.1340       1.1246       1.0262       0.5250       2.3577       16.7596      
1488.7910    11.7626      73.4082      30.8065      1.1265       1.1166       1.0343       0.5353       2.3614       13.7547      
1488.9435    11.7515      65.6445      28.8630      1.1190       1.1086       1.0166       0.5321       2.3643       10.7474      
