~Version Section
VERS.   2.0:  CWLS Log ASCII Standard - Version 2.0
WRAP.    NO:  One data record per depth sample.
~Well Information Section
#MNEM.UNIT      VALUE                    DESCRIPTION
#---------      ----------               -----------
STRT.M              15.083               :START DEPTH
STOP.M          2214.06274               :STOP DEPTH
STEP.M               .1524               :STEP
NULL.          -999.250000               :NULL VALUE
COMP.                                    :Oil Company
WELL.          GOPAVARAM#3               :Non unique well name
FLD.                S-KNGM               :Field name
LOC.  82.076189, 16.510314             :Location
PROV.                   AP               :Province
SRVC.                                    :Service
DATE.           2012-06-22               :Date unloaded
UWI.           S-KNGM-GM-3               :Unique well id
~Curve Information Section
#MNEM.UNIT                   API CODE                 Curve Description
#---------                   ----------               -----------------
BOREHOLE-DEPTH.M                                   :DEPTH
CALI.IN                                   :
DT.US/F                                   :
GR.GAPI                                   :
LLD.OHMM                                   :
LLS.OHMM                                   :
MSFL.OHMM                                   :
NPHI.V/V                                   :
RHOB.G/C3                                   :
SP.MV                                   :
~A
# ...
317.4446     17.7604      199.1083     50.6025      1.2038       0.9204       0.9884       -999.2500    -999.2500    -9.2232      
317.5970     17.4552      198.6797     49.9262      1.2183       0.9284       1.0256       -999.2500    -999.2500    -9.2586      
317.7494     17.2671      198.2983     48.4940      1.2234       0.9293       1.0584       -999.2500    -999.2500    -9.2807      
317.9018     17.2323      198.6743     48.1188      1.2105       0.9143       1.0397       -999.2500    -999.2500    -9.2592      
318.0542     17.2031      199.3153     48.3252      1.1937       0.8970       1.0099       -999.2500    -999.2500    -9.2347      
318.2066     17.2314      199.7426     49.1095      1.1734       0.8855       0.9930       -999.2500    -999.2500    -9.2225      
318.3590     17.3084      199.8969     49.9109      1.1595       0.8833       0.9866       -999.2500    -999.2500    -9.2370      
318.5114     17.3951      199.7406     50.2771      1.1550       0.8877       0.9693       -999.2500    -999.2500    -9.4053      
318.6638     17.3726      199.5327     50.5181      1.1554       0.8946       0.9559       -999.2500    -999.2500    -9.5975      
318.8162     17.0918      199.3268     50.4303      1.1619       0.9050       0.9630       -999.2500    -999.2500    -9.8593      
318.9686     16.8388      199.2554     50.1612      1.1647       0.9145       0.9876       -999.2500    -999.2500    -10.0605     
319.1210     16.7537      199.3634     49.9224      1.1679       0.9213       1.0149       -999.2500    -999.2500    -10.3125     
319.2734     16.8633      199.4599     49.3536      1.1729       0.9236       1.0309       -999.2500    -999.2500    -10.4874     
319.4258     17.2432      199.4939     47.8184      1.1759       0.9157       1.0214       -999.2500    -999.2500    -10.6809     
319.5782     17.5547      199.5000     46.9685      1.1767       0.9078       1.0157       -999.2500    -999.2500    -10.8561     
319.7306     18.0947      199.5000     46.7764      1.1729       0.8982       1.0342       -999.2500    -999.2500    -11.0189     
319.8830     18.6806      199.5000     46.3831      1.1659       0.8948       1.0527       -999.2500    -999.2500    -11.2007     
320.0354     19.6852      199.5000     45.2262      1.1582       0.8906       1.0485       -999.2500    -999.2500    -11.4176     
320.1878     20.2781      199.5000     44.2329      1.1550       0.8925       1.0443       -999.2500    -999.2500    -11.5463     
320.3402     20.2601      199.5000     42.7504      1.1583       0.8993       1.0625       -999.2500    -999.2500    -11.7002     
320.4926     20.0570      199.5000     42.4483      1.1616       0.9063       1.1107       -999.2500    -999.2500    -11.8045     
320.6450     19.1155      199.5000     43.5650      1.1642       0.9115       1.1598       -999.2500    -999.2500    -11.7845     
320.7974     18.5090      199.5000     44.7168      1.1606       0.9144       1.1500       -999.2500    -999.2500    -11.6863     
320.9498     18.1103      199.5064     48.2068      1.1479       0.9059       1.0549       -999.2500    -999.2500    -11.2558     
321.1022     18.0642      199.5465     50.0886      1.1428       0.8997       0.9902       -999.2500    -999.2500    -10.9311     
321.2546     18.0526      199.7382     49.8271      1.1402       0.8938       0.9819       -999.2500    -999.2500    -10.4402     
321.4070     18.1749      199.8708     49.0195      1.1446       0.8918       0.9704       -999.2500    -999.2500    -10.2221     
321.5594     18.5858      199.9535     47.0397      1.1530       0.8909       0.9527       -999.2500    -999.2500    -9.9222      
321.7118     18.6694      199.8796     45.8854      1.1556       0.8885       0.9473       -999.2500    -999.2500    -9.7999      
321.8642     18.3769      199.5636     45.7246      1.1518       0.8824       0.9616       -999.2500    -999.2500    -9.5339      
322.0166     18.1691      199.4239     46.1475      1.1473       0.8733       0.9696       -999.2500    -999.2500    -9.4204      
322.1690     18.0938      199.1995     46.7551      1.1352       0.8683       0.9631       -999.2500    -999.2500    -9.2218      
322.3214     18.1344      199.0219     46.7977      1.1313       0.8630       0.9632       -999.2500    -999.2500    -9.2209      
322.4738     18.1520      198.7690     45.8292      1.1291       0.8660       0.9843       -999.2500    -999.2500    -9.1633      
322.6262     18.0784      198.7694     45.4027      1.1314       0.8720       1.0021       -999.2500    -999.2500    -9.1235      
322.7786     17.8462      198.8259     45.7520      1.1374       0.8792       0.9996       -999.2500    -999.2500    -9.1603      
322.9310     17.6621      198.6829     45.4109      1.1414       0.8821       0.9835       -999.2500    -999.2500    -9.2825      
323.0834     17.4520      198.1694     43.8158      1.1423       0.8817       0.9643       -999.2500    -999.2500    -9.4075      
323.2358     17.4868      197.9938     43.3621      1.1355       0.8790       0.9557       -999.2500    -999.2500    -9.4164      
323.3882     17.5997      197.9299     42.5385      1.1269       0.8757       0.9812       -999.2500    -999.2500    -9.3950      
323.5406     17.5803      197.8979     42.3469      1.1209       0.8777       0.9711       -999.2500    -999.2500    -9.3541      
323.6930     17.4290      197.7129     42.6481      1.1169       0.8780       0.9342       -999.2500    -999.2500    -9.3263      
323.8454     17.3366      197.5325     42.6284      1.1179       0.8721       0.9573       -999.2500    -999.2500    -9.3275      
323.9978     17.3395      197.2250     42.6687      1.1205       0.8693       0.9738       -999.2500    -999.2500    -9.3316      
324.1502     17.4346      197.2151     43.1181      1.1249       0.8698       0.9578       -999.2500    -999.2500    -9.3754      
324.3026     17.5506      197.1959     44.3559      1.1282       0.8678       0.9315       -999.2500    -999.2500    -9.4344      
324.4550     17.5570      196.9583     46.0940      1.1236       0.8667       0.9265       -999.2500    -999.2500    -9.4667      
324.6074     17.5874      196.4016     49.0294      1.1148       0.8632       0.9230       -999.2500    -999.2500    -9.5202      
324.7598     17.6467      196.0276     49.5384      1.1103       0.8603       0.9178       -999.2500    -999.2500    -9.5488      
324.9122     17.7024      195.5387     48.4874      1.1037       0.8600       0.9160       -999.2500    -999.2500    -9.5526      
325.0646     17.6997      195.1190     46.4731      1.1059       0.8662       0.9262       -999.2500    -999.2500    -9.5435      
325.2170     17.6966      194.3678     43.5260      1.1146       0.8708       0.9360       -999.2500    -999.2500    -9.5505      
325.3694     17.7289      193.7707     42.5696      1.1251       0.8760       0.9541       -999.2500    -999.2500    -9.5833      
325.5218     17.7808      193.1228     42.7583      1.1356       0.8788       0.9623       -999.2500    -999.2500    -9.6454      
325.6742     17.7983      192.6746     43.8265      1.1379       0.8802       0.9464       -999.2500    -999.2500    -9.7161      
325.8266     17.8024      191.8575     44.7109      1.1350       0.8766       0.9148       -999.2500    -999.2500    -9.7812      
325.9790     17.7974      190.9887     44.9742      1.1289       0.8719       0.9072       -999.2500    -999.2500    -9.8437      
326.1314     17.7948      190.0743     45.5345      1.1238       0.8694       0.9325       -999.2500    -999.2500    -9.8812      
326.2838     17.7898      189.6139     45.6496      1.1228       0.8656       0.9580       -999.2500    -999.2500    -9.8833      
326.4362     17.7735      189.2352     45.4997      1.1219       0.8577       0.9964       -999.2500    -999.2500    -9.8545      
326.5886     17.7656      189.2204     45.2118      1.1257       0.8527       0.9918       -999.2500    -999.2500    -9.8219      
326.7410     17.7792      189.2870     44.4552      1.1315       0.8531       0.9675       -999.2500    -999.2500    -9.7832      
